{
    "MI000278": {
        "PRG_INT_CODE": "126486",
        "BEACH_NAME": "Deep Water Point",
        "BEACH_COUNTY": "GRAND TRAVERSE",
        "BEACH_STATE": "MI",
        "BEACH_TRIBE_CODE": "",
        "HISTORICAL_ID_FLAG": "N",
        "BEACH_LEN_IN_MI": "0.304471884",
        "BEACH_LATEST_BEACH_YEAR": "2023",
        "BEACH_ACCESS": "Public",
        "OWNER_ACCESS": "Public",
        "DORMANT_STATUS": "",
        "START_LATITUDE_MEASURE": "44.7736",
        "START_LONGITUDE_MEASURE": "-85.5042",
        "END_LATITUDE_MEASURE": "44.78",
        "END_LONGITUDE_MEASURE": "-85.5048",
        "SOURCE_MAP_SCALE": "",
        "H_REREFENCE_DATUM_NAME": "NAD83",
        "STATE_CONTACT_FIRST_NAME": "Shannon",
        "STATE_CONTACT_LAST_NAME": "Briggs",
        "STATE_CONTACT_AGENCY_NAME": "\"Department of Environment",
        "STATE_CONTACT_TEL_NUMBER": " Great Lakes",
        "STATE_CONTACT_URL": " and Energy (DEGLE)\"",
        "SOURCE_JOINKEY": "517-284-5526"
    },
    "MI000282": {
        "PRG_INT_CODE": "126488",
        "BEACH_NAME": "Blair Street Park",
        "BEACH_COUNTY": "ALPENA",
        "BEACH_STATE": "MI",
        "BEACH_TRIBE_CODE": "",
        "HISTORICAL_ID_FLAG": "N",
        "BEACH_LEN_IN_MI": "0.037282272",
        "BEACH_LATEST_BEACH_YEAR": "2023",
        "BEACH_ACCESS": "Public",
        "OWNER_ACCESS": "Public",
        "DORMANT_STATUS": "",
        "START_LATITUDE_MEASURE": "45.0504",
        "START_LONGITUDE_MEASURE": "-83.4427",
        "END_LATITUDE_MEASURE": "45.05",
        "END_LONGITUDE_MEASURE": "-83.4424",
        "SOURCE_MAP_SCALE": "",
        "H_REREFENCE_DATUM_NAME": "NAD83",
        "STATE_CONTACT_FIRST_NAME": "Shannon",
        "STATE_CONTACT_LAST_NAME": "Briggs",
        "STATE_CONTACT_AGENCY_NAME": "\"Department of Environment",
        "STATE_CONTACT_TEL_NUMBER": " Great Lakes",
        "STATE_CONTACT_URL": " and Energy (DEGLE)\"",
        "SOURCE_JOINKEY": "517-284-5526"
    },
    "MI000283": {
        "PRG_INT_CODE": "126489",
        "BEACH_NAME": "Starlite Beach",
        "BEACH_COUNTY": "ALPENA",
        "BEACH_STATE": "MI",
        "BEACH_TRIBE_CODE": "",
        "HISTORICAL_ID_FLAG": "N",
        "BEACH_LEN_IN_MI": "0.279617036",
        "BEACH_LATEST_BEACH_YEAR": "2023",
        "BEACH_ACCESS": "Public",
        "OWNER_ACCESS": "Public",
        "DORMANT_STATUS": "",
        "START_LATITUDE_MEASURE": "45.0468",
        "START_LONGITUDE_MEASURE": "-83.4455",
        "END_LATITUDE_MEASURE": "45.0502",
        "END_LONGITUDE_MEASURE": "-83.4429",
        "SOURCE_MAP_SCALE": "",
        "H_REREFENCE_DATUM_NAME": "NAD83",
        "STATE_CONTACT_FIRST_NAME": "Shannon",
        "STATE_CONTACT_LAST_NAME": "Briggs",
        "STATE_CONTACT_AGENCY_NAME": "\"Department of Environment",
        "STATE_CONTACT_TEL_NUMBER": " Great Lakes",
        "STATE_CONTACT_URL": " and Energy (DEGLE)\"",
        "SOURCE_JOINKEY": "517-284-5526"
    },
    "MI000284": {
        "PRG_INT_CODE": "126490",
        "BEACH_NAME": "Bay View Park",
        "BEACH_COUNTY": "ALPENA",
        "BEACH_STATE": "MI",
        "BEACH_TRIBE_CODE": "",
        "HISTORICAL_ID_FLAG": "N",
        "BEACH_LEN_IN_MI": "0.248548477",
        "BEACH_LATEST_BEACH_YEAR": "2023",
        "BEACH_ACCESS": "Public",
        "OWNER_ACCESS": "Public",
        "DORMANT_STATUS": "",
        "START_LATITUDE_MEASURE": "45.0568",
        "START_LONGITUDE_MEASURE": "-83.4474",
        "END_LATITUDE_MEASURE": "45.06",
        "END_LONGITUDE_MEASURE": "-83.4307",
        "SOURCE_MAP_SCALE": "",
        "H_REREFENCE_DATUM_NAME": "NAD83",
        "STATE_CONTACT_FIRST_NAME": "Shannon",
        "STATE_CONTACT_LAST_NAME": "Briggs",
        "STATE_CONTACT_AGENCY_NAME": "\"Department of Environment",
        "STATE_CONTACT_TEL_NUMBER": " Great Lakes",
        "STATE_CONTACT_URL": " and Energy (DEGLE)\"",
        "SOURCE_JOINKEY": "517-284-5526"
    },
    "MI000285": {
        "PRG_INT_CODE": "126491",
        "BEACH_NAME": "Michekewis Beach",
        "BEACH_COUNTY": "ALPENA",
        "BEACH_STATE": "MI",
        "BEACH_TRIBE_CODE": "",
        "HISTORICAL_ID_FLAG": "N",
        "BEACH_LEN_IN_MI": "0.093205679",
        "BEACH_LATEST_BEACH_YEAR": "2023",
        "BEACH_ACCESS": "Public",
        "OWNER_ACCESS": "Public",
        "DORMANT_STATUS": "",
        "START_LATITUDE_MEASURE": "45.0434",
        "START_LONGITUDE_MEASURE": "-83.4474",
        "END_LATITUDE_MEASURE": "45.04",
        "END_LONGITUDE_MEASURE": "-83.4469",
        "SOURCE_MAP_SCALE": "",
        "H_REREFENCE_DATUM_NAME": "NAD83",
        "STATE_CONTACT_FIRST_NAME": "Shannon",
        "STATE_CONTACT_LAST_NAME": "Briggs",
        "STATE_CONTACT_AGENCY_NAME": "\"Department of Environment",
        "STATE_CONTACT_TEL_NUMBER": " Great Lakes",
        "STATE_CONTACT_URL": " and Energy (DEGLE)\"",
        "SOURCE_JOINKEY": "517-284-5526"
    },
    "MI000286": {
        "PRG_INT_CODE": "126492",
        "BEACH_NAME": "Thompson Park",
        "BEACH_COUNTY": "ALPENA",
        "BEACH_STATE": "MI",
        "BEACH_TRIBE_CODE": "",
        "HISTORICAL_ID_FLAG": "N",
        "BEACH_LEN_IN_MI": "0.023612105",
        "BEACH_LATEST_BEACH_YEAR": "2023",
        "BEACH_ACCESS": "Public",
        "OWNER_ACCESS": "Public",
        "DORMANT_STATUS": "",
        "START_LATITUDE_MEASURE": "45.0545",
        "START_LONGITUDE_MEASURE": "-83.438",
        "END_LATITUDE_MEASURE": "45.05",
        "END_LONGITUDE_MEASURE": "-83.4377",
        "SOURCE_MAP_SCALE": "",
        "H_REREFENCE_DATUM_NAME": "NAD83",
        "STATE_CONTACT_FIRST_NAME": "Shannon",
        "STATE_CONTACT_LAST_NAME": "Briggs",
        "STATE_CONTACT_AGENCY_NAME": "\"Department of Environment",
        "STATE_CONTACT_TEL_NUMBER": " Great Lakes",
        "STATE_CONTACT_URL": " and Energy (DEGLE)\"",
        "SOURCE_JOINKEY": "517-284-5526"
    },
    "MI000290": {
        "PRG_INT_CODE": "126494",
        "BEACH_NAME": "Bay City State Recreation Area",
        "BEACH_COUNTY": "BAY",
        "BEACH_STATE": "MI",
        "BEACH_TRIBE_CODE": "",
        "HISTORICAL_ID_FLAG": "N",
        "BEACH_LEN_IN_MI": "1.745431678",
        "BEACH_LATEST_BEACH_YEAR": "2023",
        "BEACH_ACCESS": "Public",
        "OWNER_ACCESS": "Public",
        "DORMANT_STATUS": "",
        "START_LATITUDE_MEASURE": "43.6744",
        "START_LONGITUDE_MEASURE": "-83.9092",
        "END_LATITUDE_MEASURE": "43.66",
        "END_LONGITUDE_MEASURE": "-83.8807",
        "SOURCE_MAP_SCALE": "",
        "H_REREFENCE_DATUM_NAME": "NAD83",
        "STATE_CONTACT_FIRST_NAME": "Shannon",
        "STATE_CONTACT_LAST_NAME": "Briggs",
        "STATE_CONTACT_AGENCY_NAME": "\"Department of Environment",
        "STATE_CONTACT_TEL_NUMBER": " Great Lakes",
        "STATE_CONTACT_URL": " and Energy (DEGLE)\"",
        "SOURCE_JOINKEY": "517-284-5526"
    },
    "MI000292": {
        "PRG_INT_CODE": "126495",
        "BEACH_NAME": "Hagar Township Park",
        "BEACH_COUNTY": "BERRIEN",
        "BEACH_STATE": "MI",
        "BEACH_TRIBE_CODE": "",
        "HISTORICAL_ID_FLAG": "N",
        "BEACH_LEN_IN_MI": "0.267189613",
        "BEACH_LATEST_BEACH_YEAR": "2023",
        "BEACH_ACCESS": "Public",
        "OWNER_ACCESS": "Public",
        "DORMANT_STATUS": "",
        "START_LATITUDE_MEASURE": "42.1219",
        "START_LONGITUDE_MEASURE": "-86.4807",
        "END_LATITUDE_MEASURE": "42.12",
        "END_LONGITUDE_MEASURE": "-86.4842",
        "SOURCE_MAP_SCALE": "",
        "H_REREFENCE_DATUM_NAME": "NAD83",
        "STATE_CONTACT_FIRST_NAME": "Shannon",
        "STATE_CONTACT_LAST_NAME": "Briggs",
        "STATE_CONTACT_AGENCY_NAME": "\"Department of Environment",
        "STATE_CONTACT_TEL_NUMBER": " Great Lakes",
        "STATE_CONTACT_URL": " and Energy (DEGLE)\"",
        "SOURCE_JOINKEY": "517-284-5526"
    },
    "MI000293": {
        "PRG_INT_CODE": "126496",
        "BEACH_NAME": "Black River Public Access",
        "BEACH_COUNTY": "ALCONA",
        "BEACH_STATE": "MI",
        "BEACH_TRIBE_CODE": "",
        "HISTORICAL_ID_FLAG": "N",
        "BEACH_LEN_IN_MI": "0.260975901",
        "BEACH_LATEST_BEACH_YEAR": "2023",
        "BEACH_ACCESS": "Public",
        "OWNER_ACCESS": "Public",
        "DORMANT_STATUS": "",
        "START_LATITUDE_MEASURE": "44.8121",
        "START_LONGITUDE_MEASURE": "-83.2961",
        "END_LATITUDE_MEASURE": "44.82",
        "END_LONGITUDE_MEASURE": "-83.2986",
        "SOURCE_MAP_SCALE": "",
        "H_REREFENCE_DATUM_NAME": "NAD83",
        "STATE_CONTACT_FIRST_NAME": "Shannon",
        "STATE_CONTACT_LAST_NAME": "Briggs",
        "STATE_CONTACT_AGENCY_NAME": "\"Department of Environment",
        "STATE_CONTACT_TEL_NUMBER": " Great Lakes",
        "STATE_CONTACT_URL": " and Energy (DEGLE)\"",
        "SOURCE_JOINKEY": "517-284-5526"
    },
    "MI000299": {
        "PRG_INT_CODE": "126497",
        "BEACH_NAME": "Weko Beach",
        "BEACH_COUNTY": "BERRIEN",
        "BEACH_STATE": "MI",
        "BEACH_TRIBE_CODE": "",
        "HISTORICAL_ID_FLAG": "N",
        "BEACH_LEN_IN_MI": "0.251033962",
        "BEACH_LATEST_BEACH_YEAR": "2023",
        "BEACH_ACCESS": "Public",
        "OWNER_ACCESS": "Public",
        "DORMANT_STATUS": "",
        "START_LATITUDE_MEASURE": "41.9442",
        "START_LONGITUDE_MEASURE": "-86.5813",
        "END_LATITUDE_MEASURE": "41.94",
        "END_LONGITUDE_MEASURE": "-86.5829",
        "SOURCE_MAP_SCALE": "",
        "H_REREFENCE_DATUM_NAME": "NAD83",
        "STATE_CONTACT_FIRST_NAME": "Shannon",
        "STATE_CONTACT_LAST_NAME": "Briggs",
        "STATE_CONTACT_AGENCY_NAME": "\"Department of Environment",
        "STATE_CONTACT_TEL_NUMBER": " Great Lakes",
        "STATE_CONTACT_URL": " and Energy (DEGLE)\"",
        "SOURCE_JOINKEY": "517-284-5526"
    },
    "MI000300": {
        "PRG_INT_CODE": "126498",
        "BEACH_NAME": "Klienke Park",
        "BEACH_COUNTY": "MENOMINEE",
        "BEACH_STATE": "MI",
        "BEACH_TRIBE_CODE": "",
        "HISTORICAL_ID_FLAG": "N",
        "BEACH_LEN_IN_MI": "0.621371192",
        "BEACH_LATEST_BEACH_YEAR": "2023",
        "BEACH_ACCESS": "Public",
        "OWNER_ACCESS": "Public",
        "DORMANT_STATUS": "",
        "START_LATITUDE_MEASURE": "45.3208",
        "START_LONGITUDE_MEASURE": "-87.4264",
        "END_LATITUDE_MEASURE": "45.31",
        "END_LONGITUDE_MEASURE": "-87.4325",
        "SOURCE_MAP_SCALE": "",
        "H_REREFENCE_DATUM_NAME": "NAD83",
        "STATE_CONTACT_FIRST_NAME": "Shannon",
        "STATE_CONTACT_LAST_NAME": "Briggs",
        "STATE_CONTACT_AGENCY_NAME": "\"Department of Environment",
        "STATE_CONTACT_TEL_NUMBER": " Great Lakes",
        "STATE_CONTACT_URL": " and Energy (DEGLE)\"",
        "SOURCE_JOINKEY": "517-284-5526"
    },
    "MI000302": {
        "PRG_INT_CODE": "126500",
        "BEACH_NAME": "Wells State Park",
        "BEACH_COUNTY": "MENOMINEE",
        "BEACH_STATE": "MI",
        "BEACH_TRIBE_CODE": "",
        "HISTORICAL_ID_FLAG": "N",
        "BEACH_LEN_IN_MI": "2.852715142",
        "BEACH_LATEST_BEACH_YEAR": "2023",
        "BEACH_ACCESS": "Public",
        "OWNER_ACCESS": "Public",
        "DORMANT_STATUS": "",
        "START_LATITUDE_MEASURE": "45.3727",
        "START_LONGITUDE_MEASURE": "-87.3865",
        "END_LATITUDE_MEASURE": "45.405",
        "END_LONGITUDE_MEASURE": "-87.3581",
        "SOURCE_MAP_SCALE": "",
        "H_REREFENCE_DATUM_NAME": "NAD83",
        "STATE_CONTACT_FIRST_NAME": "Shannon",
        "STATE_CONTACT_LAST_NAME": "Briggs",
        "STATE_CONTACT_AGENCY_NAME": "\"Department of Environment",
        "STATE_CONTACT_TEL_NUMBER": " Great Lakes",
        "STATE_CONTACT_URL": " and Energy (DEGLE)\"",
        "SOURCE_JOINKEY": "517-284-5526"
    },
    "MI000308": {
        "PRG_INT_CODE": "126501",
        "BEACH_NAME": "P.J. Hoffmaster State Park - Public Beach Area",
        "BEACH_COUNTY": "MUSKEGON",
        "BEACH_STATE": "MI",
        "BEACH_TRIBE_CODE": "",
        "HISTORICAL_ID_FLAG": "N",
        "BEACH_LEN_IN_MI": "0.610186511",
        "BEACH_LATEST_BEACH_YEAR": "2023",
        "BEACH_ACCESS": "Public",
        "OWNER_ACCESS": "Public",
        "DORMANT_STATUS": "",
        "START_LATITUDE_MEASURE": "43.1258",
        "START_LONGITUDE_MEASURE": "-86.276",
        "END_LATITUDE_MEASURE": "43.12",
        "END_LONGITUDE_MEASURE": "-86.2718",
        "SOURCE_MAP_SCALE": "",
        "H_REREFENCE_DATUM_NAME": "NAD83",
        "STATE_CONTACT_FIRST_NAME": "Shannon",
        "STATE_CONTACT_LAST_NAME": "Briggs",
        "STATE_CONTACT_AGENCY_NAME": "\"Department of Environment",
        "STATE_CONTACT_TEL_NUMBER": " Great Lakes",
        "STATE_CONTACT_URL": " and Energy (DEGLE)\"",
        "SOURCE_JOINKEY": "517-284-5526"
    },
    "MI000309": {
        "PRG_INT_CODE": "126502",
        "BEACH_NAME": "Traverse City State Park",
        "BEACH_COUNTY": "GRAND TRAVERSE",
        "BEACH_STATE": "MI",
        "BEACH_TRIBE_CODE": "",
        "HISTORICAL_ID_FLAG": "N",
        "BEACH_LEN_IN_MI": "0.393949336",
        "BEACH_LATEST_BEACH_YEAR": "2023",
        "BEACH_ACCESS": "Public",
        "OWNER_ACCESS": "Public",
        "DORMANT_STATUS": "",
        "START_LATITUDE_MEASURE": "44.7502",
        "START_LONGITUDE_MEASURE": "-85.5588",
        "END_LATITUDE_MEASURE": "44.75",
        "END_LONGITUDE_MEASURE": "-85.5515",
        "SOURCE_MAP_SCALE": "",
        "H_REREFENCE_DATUM_NAME": "NAD83",
        "STATE_CONTACT_FIRST_NAME": "Shannon",
        "STATE_CONTACT_LAST_NAME": "Briggs",
        "STATE_CONTACT_AGENCY_NAME": "\"Department of Environment",
        "STATE_CONTACT_TEL_NUMBER": " Great Lakes",
        "STATE_CONTACT_URL": " and Energy (DEGLE)\"",
        "SOURCE_JOINKEY": "517-284-5526"
    },
    "MI000312": {
        "PRG_INT_CODE": "126504",
        "BEACH_NAME": "Mt. McSauba Beach",
        "BEACH_COUNTY": "CHARLEVOIX",
        "BEACH_STATE": "MI",
        "BEACH_TRIBE_CODE": "",
        "HISTORICAL_ID_FLAG": "N",
        "BEACH_LEN_IN_MI": "0.371579973",
        "BEACH_LATEST_BEACH_YEAR": "2023",
        "BEACH_ACCESS": "Public",
        "OWNER_ACCESS": "Public",
        "DORMANT_STATUS": "",
        "START_LATITUDE_MEASURE": "45.3366",
        "START_LONGITUDE_MEASURE": "-85.2508",
        "END_LATITUDE_MEASURE": "45.33",
        "END_LONGITUDE_MEASURE": "-85.2517",
        "SOURCE_MAP_SCALE": "",
        "H_REREFENCE_DATUM_NAME": "NAD83",
        "STATE_CONTACT_FIRST_NAME": "Shannon",
        "STATE_CONTACT_LAST_NAME": "Briggs",
        "STATE_CONTACT_AGENCY_NAME": "\"Department of Environment",
        "STATE_CONTACT_TEL_NUMBER": " Great Lakes",
        "STATE_CONTACT_URL": " and Energy (DEGLE)\"",
        "SOURCE_JOINKEY": "517-284-5526"
    },
    "MI000313": {
        "PRG_INT_CODE": "126505",
        "BEACH_NAME": "Fisherman's Island State Park",
        "BEACH_COUNTY": "CHARLEVOIX",
        "BEACH_STATE": "MI",
        "BEACH_TRIBE_CODE": "",
        "HISTORICAL_ID_FLAG": "N",
        "BEACH_LEN_IN_MI": "8.564980511",
        "BEACH_LATEST_BEACH_YEAR": "2023",
        "BEACH_ACCESS": "Public",
        "OWNER_ACCESS": "Public",
        "DORMANT_STATUS": "",
        "START_LATITUDE_MEASURE": "45.2232",
        "START_LONGITUDE_MEASURE": "-85.3877",
        "END_LATITUDE_MEASURE": "45.31",
        "END_LONGITUDE_MEASURE": "-85.309",
        "SOURCE_MAP_SCALE": "",
        "H_REREFENCE_DATUM_NAME": "NAD83",
        "STATE_CONTACT_FIRST_NAME": "Shannon",
        "STATE_CONTACT_LAST_NAME": "Briggs",
        "STATE_CONTACT_AGENCY_NAME": "\"Department of Environment",
        "STATE_CONTACT_TEL_NUMBER": " Great Lakes",
        "STATE_CONTACT_URL": " and Energy (DEGLE)\"",
        "SOURCE_JOINKEY": "517-284-5526"
    },
    "MI000315": {
        "PRG_INT_CODE": "126506",
        "BEACH_NAME": "Huron Street Beach",
        "BEACH_COUNTY": "CHEBOYGAN",
        "BEACH_STATE": "MI",
        "BEACH_TRIBE_CODE": "",
        "HISTORICAL_ID_FLAG": "N",
        "BEACH_LEN_IN_MI": "0.124274238",
        "BEACH_LATEST_BEACH_YEAR": "2023",
        "BEACH_ACCESS": "Public",
        "OWNER_ACCESS": "Public",
        "DORMANT_STATUS": "",
        "START_LATITUDE_MEASURE": "45.6571",
        "START_LONGITUDE_MEASURE": "-84.4677",
        "END_LATITUDE_MEASURE": "45.66",
        "END_LONGITUDE_MEASURE": "-84.4694",
        "SOURCE_MAP_SCALE": "",
        "H_REREFENCE_DATUM_NAME": "NAD83",
        "STATE_CONTACT_FIRST_NAME": "Shannon",
        "STATE_CONTACT_LAST_NAME": "Briggs",
        "STATE_CONTACT_AGENCY_NAME": "\"Department of Environment",
        "STATE_CONTACT_TEL_NUMBER": " Great Lakes",
        "STATE_CONTACT_URL": " and Energy (DEGLE)\"",
        "SOURCE_JOINKEY": "517-284-5526"
    },
    "MI000320": {
        "PRG_INT_CODE": "126507",
        "BEACH_NAME": "Bliss Township Beach",
        "BEACH_COUNTY": "EMMET",
        "BEACH_STATE": "MI",
        "BEACH_TRIBE_CODE": "",
        "HISTORICAL_ID_FLAG": "N",
        "BEACH_LEN_IN_MI": "0.256626302",
        "BEACH_LATEST_BEACH_YEAR": "2023",
        "BEACH_ACCESS": "Public",
        "OWNER_ACCESS": "Public",
        "DORMANT_STATUS": "",
        "START_LATITUDE_MEASURE": "45.6464",
        "START_LONGITUDE_MEASURE": "-85.0357",
        "END_LATITUDE_MEASURE": "45.64",
        "END_LONGITUDE_MEASURE": "-85.0396",
        "SOURCE_MAP_SCALE": "",
        "H_REREFENCE_DATUM_NAME": "NAD83",
        "STATE_CONTACT_FIRST_NAME": "Shannon",
        "STATE_CONTACT_LAST_NAME": "Briggs",
        "STATE_CONTACT_AGENCY_NAME": "\"Department of Environment",
        "STATE_CONTACT_TEL_NUMBER": " Great Lakes",
        "STATE_CONTACT_URL": " and Energy (DEGLE)\"",
        "SOURCE_JOINKEY": "517-284-5526"
    },
    "MI000321": {
        "PRG_INT_CODE": "126508",
        "BEACH_NAME": "Cross Village Beach",
        "BEACH_COUNTY": "EMMET",
        "BEACH_STATE": "MI",
        "BEACH_TRIBE_CODE": "",
        "HISTORICAL_ID_FLAG": "N",
        "BEACH_LEN_IN_MI": "0.282723892",
        "BEACH_LATEST_BEACH_YEAR": "2023",
        "BEACH_ACCESS": "Public",
        "OWNER_ACCESS": "Public",
        "DORMANT_STATUS": "",
        "START_LATITUDE_MEASURE": "45.645",
        "START_LONGITUDE_MEASURE": "-85.0396",
        "END_LATITUDE_MEASURE": "45.6401",
        "END_LONGITUDE_MEASURE": "-85.053",
        "SOURCE_MAP_SCALE": "",
        "H_REREFENCE_DATUM_NAME": "NAD83",
        "STATE_CONTACT_FIRST_NAME": "Shannon",
        "STATE_CONTACT_LAST_NAME": "Briggs",
        "STATE_CONTACT_AGENCY_NAME": "\"Department of Environment",
        "STATE_CONTACT_TEL_NUMBER": " Great Lakes",
        "STATE_CONTACT_URL": " and Energy (DEGLE)\"",
        "SOURCE_JOINKEY": "517-284-5526"
    },
    "MI000322": {
        "PRG_INT_CODE": "126509",
        "BEACH_NAME": "Belle Isle Beach",
        "BEACH_COUNTY": "WAYNE",
        "BEACH_STATE": "MI",
        "BEACH_TRIBE_CODE": "",
        "HISTORICAL_ID_FLAG": "N",
        "BEACH_LEN_IN_MI": "0.186411358",
        "BEACH_LATEST_BEACH_YEAR": "2023",
        "BEACH_ACCESS": "Public",
        "OWNER_ACCESS": "Public",
        "DORMANT_STATUS": "",
        "START_LATITUDE_MEASURE": "42.3447",
        "START_LONGITUDE_MEASURE": "-82.9747",
        "END_LATITUDE_MEASURE": "42.34",
        "END_LONGITUDE_MEASURE": "-82.9767",
        "SOURCE_MAP_SCALE": "",
        "H_REREFENCE_DATUM_NAME": "NAD83",
        "STATE_CONTACT_FIRST_NAME": "Shannon",
        "STATE_CONTACT_LAST_NAME": "Briggs",
        "STATE_CONTACT_AGENCY_NAME": "\"Department of Environment",
        "STATE_CONTACT_TEL_NUMBER": " Great Lakes",
        "STATE_CONTACT_URL": " and Energy (DEGLE)\"",
        "SOURCE_JOINKEY": "517-284-5526"
    },
    "MI000326": {
        "PRG_INT_CODE": "126510",
        "BEACH_NAME": "Tawas Point State Park Campground",
        "BEACH_COUNTY": "IOSCO",
        "BEACH_STATE": "MI",
        "BEACH_TRIBE_CODE": "",
        "HISTORICAL_ID_FLAG": "N",
        "BEACH_LEN_IN_MI": "0.559234073",
        "BEACH_LATEST_BEACH_YEAR": "2023",
        "BEACH_ACCESS": "Public",
        "OWNER_ACCESS": "Public",
        "DORMANT_STATUS": "",
        "START_LATITUDE_MEASURE": "44.2631",
        "START_LONGITUDE_MEASURE": "-83.4443",
        "END_LATITUDE_MEASURE": "44.26",
        "END_LONGITUDE_MEASURE": "-83.4487",
        "SOURCE_MAP_SCALE": "",
        "H_REREFENCE_DATUM_NAME": "NAD83",
        "STATE_CONTACT_FIRST_NAME": "Shannon",
        "STATE_CONTACT_LAST_NAME": "Briggs",
        "STATE_CONTACT_AGENCY_NAME": "\"Department of Environment",
        "STATE_CONTACT_TEL_NUMBER": " Great Lakes",
        "STATE_CONTACT_URL": " and Energy (DEGLE)\"",
        "SOURCE_JOINKEY": "517-284-5526"
    },
    "MI000327": {
        "PRG_INT_CODE": "126511",
        "BEACH_NAME": "East Tawas City Park",
        "BEACH_COUNTY": "IOSCO",
        "BEACH_STATE": "MI",
        "BEACH_TRIBE_CODE": "",
        "HISTORICAL_ID_FLAG": "N",
        "BEACH_LEN_IN_MI": "0.311306967",
        "BEACH_LATEST_BEACH_YEAR": "2023",
        "BEACH_ACCESS": "Public",
        "OWNER_ACCESS": "Public",
        "DORMANT_STATUS": "",
        "START_LATITUDE_MEASURE": "44.2774",
        "START_LONGITUDE_MEASURE": "-83.496",
        "END_LATITUDE_MEASURE": "44.28",
        "END_LONGITUDE_MEASURE": "-83.4898",
        "SOURCE_MAP_SCALE": "",
        "H_REREFENCE_DATUM_NAME": "NAD83",
        "STATE_CONTACT_FIRST_NAME": "Shannon",
        "STATE_CONTACT_LAST_NAME": "Briggs",
        "STATE_CONTACT_AGENCY_NAME": "\"Department of Environment",
        "STATE_CONTACT_TEL_NUMBER": " Great Lakes",
        "STATE_CONTACT_URL": " and Energy (DEGLE)\"",
        "SOURCE_JOINKEY": "517-284-5526"
    },
    "MI000329": {
        "PRG_INT_CODE": "126513",
        "BEACH_NAME": "Elk Rapids",
        "BEACH_COUNTY": "ANTRIM",
        "BEACH_STATE": "MI",
        "BEACH_TRIBE_CODE": "",
        "HISTORICAL_ID_FLAG": "N",
        "BEACH_LEN_IN_MI": "0.239227909",
        "BEACH_LATEST_BEACH_YEAR": "2023",
        "BEACH_ACCESS": "Public",
        "OWNER_ACCESS": "Public",
        "DORMANT_STATUS": "",
        "START_LATITUDE_MEASURE": "44.8986",
        "START_LONGITUDE_MEASURE": "-85.4177",
        "END_LATITUDE_MEASURE": "44.8966",
        "END_LONGITUDE_MEASURE": "-85.422",
        "SOURCE_MAP_SCALE": "",
        "H_REREFENCE_DATUM_NAME": "NAD83",
        "STATE_CONTACT_FIRST_NAME": "Shannon",
        "STATE_CONTACT_LAST_NAME": "Briggs",
        "STATE_CONTACT_AGENCY_NAME": "\"Department of Environment",
        "STATE_CONTACT_TEL_NUMBER": " Great Lakes",
        "STATE_CONTACT_URL": " and Energy (DEGLE)\"",
        "SOURCE_JOINKEY": "517-284-5526"
    },
    "MI000332": {
        "PRG_INT_CODE": "126514",
        "BEACH_NAME": "Escanaba Bathing Beach",
        "BEACH_COUNTY": "DELTA",
        "BEACH_STATE": "MI",
        "BEACH_TRIBE_CODE": "",
        "HISTORICAL_ID_FLAG": "N",
        "BEACH_LEN_IN_MI": "0.416318699",
        "BEACH_LATEST_BEACH_YEAR": "2023",
        "BEACH_ACCESS": "Public",
        "OWNER_ACCESS": "Public",
        "DORMANT_STATUS": "",
        "START_LATITUDE_MEASURE": "45.7348",
        "START_LONGITUDE_MEASURE": "-87.0597",
        "END_LATITUDE_MEASURE": "45.7384",
        "END_LONGITUDE_MEASURE": "-87.054",
        "SOURCE_MAP_SCALE": "",
        "H_REREFENCE_DATUM_NAME": "NAD83",
        "STATE_CONTACT_FIRST_NAME": "Shannon",
        "STATE_CONTACT_LAST_NAME": "Briggs",
        "STATE_CONTACT_AGENCY_NAME": "\"Department of Environment",
        "STATE_CONTACT_TEL_NUMBER": " Great Lakes",
        "STATE_CONTACT_URL": " and Energy (DEGLE)\"",
        "SOURCE_JOINKEY": "517-284-5526"
    },
    "MI000333": {
        "PRG_INT_CODE": "126515",
        "BEACH_NAME": "North Beach Park",
        "BEACH_COUNTY": "OTTAWA",
        "BEACH_STATE": "MI",
        "BEACH_TRIBE_CODE": "",
        "HISTORICAL_ID_FLAG": "N",
        "BEACH_LEN_IN_MI": "0.131109322",
        "BEACH_LATEST_BEACH_YEAR": "2023",
        "BEACH_ACCESS": "Public",
        "OWNER_ACCESS": "Public",
        "DORMANT_STATUS": "",
        "START_LATITUDE_MEASURE": "43.0837",
        "START_LONGITUDE_MEASURE": "-86.255",
        "END_LATITUDE_MEASURE": "43.08",
        "END_LONGITUDE_MEASURE": "-86.2543",
        "SOURCE_MAP_SCALE": "",
        "H_REREFENCE_DATUM_NAME": "NAD83",
        "STATE_CONTACT_FIRST_NAME": "Shannon",
        "STATE_CONTACT_LAST_NAME": "Briggs",
        "STATE_CONTACT_AGENCY_NAME": "\"Department of Environment",
        "STATE_CONTACT_TEL_NUMBER": " Great Lakes",
        "STATE_CONTACT_URL": " and Energy (DEGLE)\"",
        "SOURCE_JOINKEY": "517-284-5526"
    },
    "MI000334": {
        "PRG_INT_CODE": "126516",
        "BEACH_NAME": "Fuller Park",
        "BEACH_COUNTY": "DELTA",
        "BEACH_STATE": "MI",
        "BEACH_TRIBE_CODE": "",
        "HISTORICAL_ID_FLAG": "N",
        "BEACH_LEN_IN_MI": "0.621371192",
        "BEACH_LATEST_BEACH_YEAR": "2023",
        "BEACH_ACCESS": "Public",
        "OWNER_ACCESS": "Public",
        "DORMANT_STATUS": "",
        "START_LATITUDE_MEASURE": "45.5691",
        "START_LONGITUDE_MEASURE": "-87.2499",
        "END_LATITUDE_MEASURE": "45.4726",
        "END_LONGITUDE_MEASURE": "-87.2434",
        "SOURCE_MAP_SCALE": "",
        "H_REREFENCE_DATUM_NAME": "NAD83",
        "STATE_CONTACT_FIRST_NAME": "Shannon",
        "STATE_CONTACT_LAST_NAME": "Briggs",
        "STATE_CONTACT_AGENCY_NAME": "\"Department of Environment",
        "STATE_CONTACT_TEL_NUMBER": " Great Lakes",
        "STATE_CONTACT_URL": " and Energy (DEGLE)\"",
        "SOURCE_JOINKEY": "517-284-5526"
    },
    "MI000336": {
        "PRG_INT_CODE": "126517",
        "BEACH_NAME": "Fayette State Park",
        "BEACH_COUNTY": "DELTA",
        "BEACH_STATE": "MI",
        "BEACH_TRIBE_CODE": "",
        "HISTORICAL_ID_FLAG": "N",
        "BEACH_LEN_IN_MI": "0.310685596",
        "BEACH_LATEST_BEACH_YEAR": "2023",
        "BEACH_ACCESS": "Public",
        "OWNER_ACCESS": "Public",
        "DORMANT_STATUS": "",
        "START_LATITUDE_MEASURE": "45.7101",
        "START_LONGITUDE_MEASURE": "-86.6674",
        "END_LATITUDE_MEASURE": "45.71",
        "END_LONGITUDE_MEASURE": "-86.6647",
        "SOURCE_MAP_SCALE": "",
        "H_REREFENCE_DATUM_NAME": "NAD83",
        "STATE_CONTACT_FIRST_NAME": "Shannon",
        "STATE_CONTACT_LAST_NAME": "Briggs",
        "STATE_CONTACT_AGENCY_NAME": "\"Department of Environment",
        "STATE_CONTACT_TEL_NUMBER": " Great Lakes",
        "STATE_CONTACT_URL": " and Energy (DEGLE)\"",
        "SOURCE_JOINKEY": "517-284-5526"
    },
    "MI000337": {
        "PRG_INT_CODE": "126518",
        "BEACH_NAME": "Gladstone Bathing Beach/Van Cleve Park",
        "BEACH_COUNTY": "DELTA",
        "BEACH_STATE": "MI",
        "BEACH_TRIBE_CODE": "",
        "HISTORICAL_ID_FLAG": "N",
        "BEACH_LEN_IN_MI": "1.004757217",
        "BEACH_LATEST_BEACH_YEAR": "2023",
        "BEACH_ACCESS": "Public",
        "OWNER_ACCESS": "Public",
        "DORMANT_STATUS": "",
        "START_LATITUDE_MEASURE": "45.8346",
        "START_LONGITUDE_MEASURE": "-87.039",
        "END_LATITUDE_MEASURE": "45.84",
        "END_LONGITUDE_MEASURE": "-87.0192",
        "SOURCE_MAP_SCALE": "",
        "H_REREFENCE_DATUM_NAME": "NAD83",
        "STATE_CONTACT_FIRST_NAME": "Shannon",
        "STATE_CONTACT_LAST_NAME": "Briggs",
        "STATE_CONTACT_AGENCY_NAME": "\"Department of Environment",
        "STATE_CONTACT_TEL_NUMBER": " Great Lakes",
        "STATE_CONTACT_URL": " and Energy (DEGLE)\"",
        "SOURCE_JOINKEY": "517-284-5526"
    },
    "MI000338": {
        "PRG_INT_CODE": "126519",
        "BEACH_NAME": "Readmond Township Beach",
        "BEACH_COUNTY": "EMMET",
        "BEACH_STATE": "MI",
        "BEACH_TRIBE_CODE": "",
        "HISTORICAL_ID_FLAG": "N",
        "BEACH_LEN_IN_MI": "0.075807285",
        "BEACH_LATEST_BEACH_YEAR": "2023",
        "BEACH_ACCESS": "Public",
        "OWNER_ACCESS": "Public",
        "DORMANT_STATUS": "",
        "START_LATITUDE_MEASURE": "45.574",
        "START_LONGITUDE_MEASURE": "-85.1188",
        "END_LATITUDE_MEASURE": "45.57",
        "END_LONGITUDE_MEASURE": "-85.1188",
        "SOURCE_MAP_SCALE": "",
        "H_REREFENCE_DATUM_NAME": "NAD83",
        "STATE_CONTACT_FIRST_NAME": "Shannon",
        "STATE_CONTACT_LAST_NAME": "Briggs",
        "STATE_CONTACT_AGENCY_NAME": "\"Department of Environment",
        "STATE_CONTACT_TEL_NUMBER": " Great Lakes",
        "STATE_CONTACT_URL": " and Energy (DEGLE)\"",
        "SOURCE_JOINKEY": "517-284-5526"
    },
    "MI000339": {
        "PRG_INT_CODE": "126520",
        "BEACH_NAME": "Church Beach",
        "BEACH_COUNTY": "EMMET",
        "BEACH_STATE": "MI",
        "BEACH_TRIBE_CODE": "",
        "HISTORICAL_ID_FLAG": "N",
        "BEACH_LEN_IN_MI": "0.285830748",
        "BEACH_LATEST_BEACH_YEAR": "2023",
        "BEACH_ACCESS": "Public",
        "OWNER_ACCESS": "Public",
        "DORMANT_STATUS": "",
        "START_LATITUDE_MEASURE": "45.5689",
        "START_LONGITUDE_MEASURE": "-85.1197",
        "END_LATITUDE_MEASURE": "45.57",
        "END_LONGITUDE_MEASURE": "-85.1184",
        "SOURCE_MAP_SCALE": "",
        "H_REREFENCE_DATUM_NAME": "NAD83",
        "STATE_CONTACT_FIRST_NAME": "Shannon",
        "STATE_CONTACT_LAST_NAME": "Briggs",
        "STATE_CONTACT_AGENCY_NAME": "\"Department of Environment",
        "STATE_CONTACT_TEL_NUMBER": " Great Lakes",
        "STATE_CONTACT_URL": " and Energy (DEGLE)\"",
        "SOURCE_JOINKEY": "517-284-5526"
    },
    "MI000340": {
        "PRG_INT_CODE": "126521",
        "BEACH_NAME": "Grand Haven State Park",
        "BEACH_COUNTY": "OTTAWA",
        "BEACH_STATE": "MI",
        "BEACH_TRIBE_CODE": "",
        "HISTORICAL_ID_FLAG": "N",
        "BEACH_LEN_IN_MI": "0.566690527",
        "BEACH_LATEST_BEACH_YEAR": "2023",
        "BEACH_ACCESS": "Public",
        "OWNER_ACCESS": "Public",
        "DORMANT_STATUS": "",
        "START_LATITUDE_MEASURE": "43.0539",
        "START_LONGITUDE_MEASURE": "-86.2473",
        "END_LATITUDE_MEASURE": "43.05",
        "END_LONGITUDE_MEASURE": "-86.245",
        "SOURCE_MAP_SCALE": "",
        "H_REREFENCE_DATUM_NAME": "NAD83",
        "STATE_CONTACT_FIRST_NAME": "Shannon",
        "STATE_CONTACT_LAST_NAME": "Briggs",
        "STATE_CONTACT_AGENCY_NAME": "\"Department of Environment",
        "STATE_CONTACT_TEL_NUMBER": " Great Lakes",
        "STATE_CONTACT_URL": " and Energy (DEGLE)\"",
        "SOURCE_JOINKEY": "517-284-5526"
    },
    "MI000342": {
        "PRG_INT_CODE": "126522",
        "BEACH_NAME": "Grand Haven City Beach",
        "BEACH_COUNTY": "OTTAWA",
        "BEACH_STATE": "MI",
        "BEACH_TRIBE_CODE": "",
        "HISTORICAL_ID_FLAG": "N",
        "BEACH_LEN_IN_MI": "0.279617036",
        "BEACH_LATEST_BEACH_YEAR": "2023",
        "BEACH_ACCESS": "Public",
        "OWNER_ACCESS": "Public",
        "DORMANT_STATUS": "",
        "START_LATITUDE_MEASURE": "43.0495",
        "START_LONGITUDE_MEASURE": "-86.2445",
        "END_LATITUDE_MEASURE": "43.05",
        "END_LONGITUDE_MEASURE": "-86.2431",
        "SOURCE_MAP_SCALE": "",
        "H_REREFENCE_DATUM_NAME": "NAD83",
        "STATE_CONTACT_FIRST_NAME": "Shannon",
        "STATE_CONTACT_LAST_NAME": "Briggs",
        "STATE_CONTACT_AGENCY_NAME": "\"Department of Environment",
        "STATE_CONTACT_TEL_NUMBER": " Great Lakes",
        "STATE_CONTACT_URL": " and Energy (DEGLE)\"",
        "SOURCE_JOINKEY": "517-284-5526"
    },
    "MI000344": {
        "PRG_INT_CODE": "126523",
        "BEACH_NAME": "Pier Park",
        "BEACH_COUNTY": "WAYNE",
        "BEACH_STATE": "MI",
        "BEACH_TRIBE_CODE": "",
        "HISTORICAL_ID_FLAG": "N",
        "BEACH_LEN_IN_MI": "0.108739959",
        "BEACH_LATEST_BEACH_YEAR": "2023",
        "BEACH_ACCESS": "Public",
        "OWNER_ACCESS": "Public",
        "DORMANT_STATUS": "",
        "START_LATITUDE_MEASURE": "42.4058",
        "START_LONGITUDE_MEASURE": "-82.8852",
        "END_LATITUDE_MEASURE": "42.4053",
        "END_LONGITUDE_MEASURE": "-82.8857",
        "SOURCE_MAP_SCALE": "",
        "H_REREFENCE_DATUM_NAME": "NAD83",
        "STATE_CONTACT_FIRST_NAME": "Shannon",
        "STATE_CONTACT_LAST_NAME": "Briggs",
        "STATE_CONTACT_AGENCY_NAME": "\"Department of Environment",
        "STATE_CONTACT_TEL_NUMBER": " Great Lakes",
        "STATE_CONTACT_URL": " and Energy (DEGLE)\"",
        "SOURCE_JOINKEY": "517-284-5526"
    },
    "MI000345": {
        "PRG_INT_CODE": "126524",
        "BEACH_NAME": "Zoll Street Beach",
        "BEACH_COUNTY": "EMMET",
        "BEACH_STATE": "MI",
        "BEACH_TRIBE_CODE": "",
        "HISTORICAL_ID_FLAG": "N",
        "BEACH_LEN_IN_MI": "0.012427424",
        "BEACH_LATEST_BEACH_YEAR": "2023",
        "BEACH_ACCESS": "Public",
        "OWNER_ACCESS": "Public",
        "DORMANT_STATUS": "",
        "START_LATITUDE_MEASURE": "45.4895",
        "START_LONGITUDE_MEASURE": "-85.0956",
        "END_LATITUDE_MEASURE": "45.49",
        "END_LONGITUDE_MEASURE": "-85.0947",
        "SOURCE_MAP_SCALE": "",
        "H_REREFENCE_DATUM_NAME": "NAD83",
        "STATE_CONTACT_FIRST_NAME": "Shannon",
        "STATE_CONTACT_LAST_NAME": "Briggs",
        "STATE_CONTACT_AGENCY_NAME": "\"Department of Environment",
        "STATE_CONTACT_TEL_NUMBER": " Great Lakes",
        "STATE_CONTACT_URL": " and Energy (DEGLE)\"",
        "SOURCE_JOINKEY": "517-284-5526"
    },
    "MI000347": {
        "PRG_INT_CODE": "126526",
        "BEACH_NAME": "Thorne Swift Preserve",
        "BEACH_COUNTY": "EMMET",
        "BEACH_STATE": "MI",
        "BEACH_TRIBE_CODE": "",
        "HISTORICAL_ID_FLAG": "N",
        "BEACH_LEN_IN_MI": "0.267189613",
        "BEACH_LATEST_BEACH_YEAR": "2023",
        "BEACH_ACCESS": "Public",
        "OWNER_ACCESS": "Public",
        "DORMANT_STATUS": "",
        "START_LATITUDE_MEASURE": "45.4895",
        "START_LONGITUDE_MEASURE": "-85.0956",
        "END_LATITUDE_MEASURE": "45.49",
        "END_LONGITUDE_MEASURE": "-85.0947",
        "SOURCE_MAP_SCALE": "",
        "H_REREFENCE_DATUM_NAME": "NAD83",
        "STATE_CONTACT_FIRST_NAME": "Shannon",
        "STATE_CONTACT_LAST_NAME": "Briggs",
        "STATE_CONTACT_AGENCY_NAME": "\"Department of Environment",
        "STATE_CONTACT_TEL_NUMBER": " Great Lakes",
        "STATE_CONTACT_URL": " and Energy (DEGLE)\"",
        "SOURCE_JOINKEY": "517-284-5526"
    },
    "MI000348": {
        "PRG_INT_CODE": "126527",
        "BEACH_NAME": "Harrisville State Park",
        "BEACH_COUNTY": "ALCONA",
        "BEACH_STATE": "MI",
        "BEACH_TRIBE_CODE": "",
        "HISTORICAL_ID_FLAG": "N",
        "BEACH_LEN_IN_MI": "0.03106856",
        "BEACH_LATEST_BEACH_YEAR": "2023",
        "BEACH_ACCESS": "Public",
        "OWNER_ACCESS": "Public",
        "DORMANT_STATUS": "",
        "START_LATITUDE_MEASURE": "44.6526",
        "START_LONGITUDE_MEASURE": "-83.2897",
        "END_LATITUDE_MEASURE": "44.65",
        "END_LONGITUDE_MEASURE": "-83.295",
        "SOURCE_MAP_SCALE": "",
        "H_REREFENCE_DATUM_NAME": "NAD83",
        "STATE_CONTACT_FIRST_NAME": "Shannon",
        "STATE_CONTACT_LAST_NAME": "Briggs",
        "STATE_CONTACT_AGENCY_NAME": "\"Department of Environment",
        "STATE_CONTACT_TEL_NUMBER": " Great Lakes",
        "STATE_CONTACT_URL": " and Energy (DEGLE)\"",
        "SOURCE_JOINKEY": "517-284-5526"
    },
    "MI000349": {
        "PRG_INT_CODE": "126528",
        "BEACH_NAME": "Holland State Park",
        "BEACH_COUNTY": "OTTAWA",
        "BEACH_STATE": "MI",
        "BEACH_TRIBE_CODE": "",
        "HISTORICAL_ID_FLAG": "N",
        "BEACH_LEN_IN_MI": "0.341754156",
        "BEACH_LATEST_BEACH_YEAR": "2023",
        "BEACH_ACCESS": "Public",
        "OWNER_ACCESS": "Public",
        "DORMANT_STATUS": "",
        "START_LATITUDE_MEASURE": "42.7778",
        "START_LONGITUDE_MEASURE": "-86.2113",
        "END_LATITUDE_MEASURE": "42.77",
        "END_LONGITUDE_MEASURE": "-86.2125",
        "SOURCE_MAP_SCALE": "",
        "H_REREFENCE_DATUM_NAME": "NAD83",
        "STATE_CONTACT_FIRST_NAME": "Shannon",
        "STATE_CONTACT_LAST_NAME": "Briggs",
        "STATE_CONTACT_AGENCY_NAME": "\"Department of Environment",
        "STATE_CONTACT_TEL_NUMBER": " Great Lakes",
        "STATE_CONTACT_URL": " and Energy (DEGLE)\"",
        "SOURCE_JOINKEY": "517-284-5526"
    },
    "MI000350": {
        "PRG_INT_CODE": "126529",
        "BEACH_NAME": "Tunnel Park",
        "BEACH_COUNTY": "OTTAWA",
        "BEACH_STATE": "MI",
        "BEACH_TRIBE_CODE": "",
        "HISTORICAL_ID_FLAG": "N",
        "BEACH_LEN_IN_MI": "0.248548477",
        "BEACH_LATEST_BEACH_YEAR": "2023",
        "BEACH_ACCESS": "Public",
        "OWNER_ACCESS": "Public",
        "DORMANT_STATUS": "",
        "START_LATITUDE_MEASURE": "42.8011",
        "START_LONGITUDE_MEASURE": "-86.2113",
        "END_LATITUDE_MEASURE": "42.8",
        "END_LONGITUDE_MEASURE": "-86.2109",
        "SOURCE_MAP_SCALE": "",
        "H_REREFENCE_DATUM_NAME": "NAD83",
        "STATE_CONTACT_FIRST_NAME": "Shannon",
        "STATE_CONTACT_LAST_NAME": "Briggs",
        "STATE_CONTACT_AGENCY_NAME": "\"Department of Environment",
        "STATE_CONTACT_TEL_NUMBER": " Great Lakes",
        "STATE_CONTACT_URL": " and Energy (DEGLE)\"",
        "SOURCE_JOINKEY": "517-284-5526"
    },
    "MI000358": {
        "PRG_INT_CODE": "126531",
        "BEACH_NAME": "Lakeport State Park",
        "BEACH_COUNTY": "ST. CLAIR",
        "BEACH_STATE": "MI",
        "BEACH_TRIBE_CODE": "",
        "HISTORICAL_ID_FLAG": "N",
        "BEACH_LEN_IN_MI": "0.357288435",
        "BEACH_LATEST_BEACH_YEAR": "2023",
        "BEACH_ACCESS": "Public",
        "OWNER_ACCESS": "Public",
        "DORMANT_STATUS": "",
        "START_LATITUDE_MEASURE": "43.1048",
        "START_LONGITUDE_MEASURE": "-82.4864",
        "END_LATITUDE_MEASURE": "43.11",
        "END_LONGITUDE_MEASURE": "-82.4871",
        "SOURCE_MAP_SCALE": "",
        "H_REREFENCE_DATUM_NAME": "NAD83",
        "STATE_CONTACT_FIRST_NAME": "Shannon",
        "STATE_CONTACT_LAST_NAME": "Briggs",
        "STATE_CONTACT_AGENCY_NAME": "\"Department of Environment",
        "STATE_CONTACT_TEL_NUMBER": " Great Lakes",
        "STATE_CONTACT_URL": " and Energy (DEGLE)\"",
        "SOURCE_JOINKEY": "517-284-5526"
    },
    "MI000359": {
        "PRG_INT_CODE": "126532",
        "BEACH_NAME": "Lakeport State Campground",
        "BEACH_COUNTY": "ST. CLAIR",
        "BEACH_STATE": "MI",
        "BEACH_TRIBE_CODE": "",
        "HISTORICAL_ID_FLAG": "N",
        "BEACH_LEN_IN_MI": "0.932056788",
        "BEACH_LATEST_BEACH_YEAR": "2023",
        "BEACH_ACCESS": "Public",
        "OWNER_ACCESS": "Public",
        "DORMANT_STATUS": "",
        "START_LATITUDE_MEASURE": "43.1194",
        "START_LONGITUDE_MEASURE": "-82.4908",
        "END_LATITUDE_MEASURE": "43.13",
        "END_LONGITUDE_MEASURE": "-82.4928",
        "SOURCE_MAP_SCALE": "",
        "H_REREFENCE_DATUM_NAME": "NAD83",
        "STATE_CONTACT_FIRST_NAME": "Shannon",
        "STATE_CONTACT_LAST_NAME": "Briggs",
        "STATE_CONTACT_AGENCY_NAME": "\"Department of Environment",
        "STATE_CONTACT_TEL_NUMBER": " Great Lakes",
        "STATE_CONTACT_URL": " and Energy (DEGLE)\"",
        "SOURCE_JOINKEY": "517-284-5526"
    },
    "MI000360": {
        "PRG_INT_CODE": "126533",
        "BEACH_NAME": "Brissette Beach Township Park",
        "BEACH_COUNTY": "BAY",
        "BEACH_STATE": "MI",
        "BEACH_TRIBE_CODE": "",
        "HISTORICAL_ID_FLAG": "N",
        "BEACH_LEN_IN_MI": "2.999358744",
        "BEACH_LATEST_BEACH_YEAR": "2023",
        "BEACH_ACCESS": "Public",
        "OWNER_ACCESS": "Public",
        "DORMANT_STATUS": "",
        "START_LATITUDE_MEASURE": "43.7107",
        "START_LONGITUDE_MEASURE": "-83.9367",
        "END_LATITUDE_MEASURE": "43.6706",
        "END_LONGITUDE_MEASURE": "-83.9049",
        "SOURCE_MAP_SCALE": "",
        "H_REREFENCE_DATUM_NAME": "NAD83",
        "STATE_CONTACT_FIRST_NAME": "Shannon",
        "STATE_CONTACT_LAST_NAME": "Briggs",
        "STATE_CONTACT_AGENCY_NAME": "\"Department of Environment",
        "STATE_CONTACT_TEL_NUMBER": " Great Lakes",
        "STATE_CONTACT_URL": " and Energy (DEGLE)\"",
        "SOURCE_JOINKEY": "517-284-5526"
    },
    "MI000361": {
        "PRG_INT_CODE": "126534",
        "BEACH_NAME": "South Linwood Beach Township Park",
        "BEACH_COUNTY": "BAY",
        "BEACH_STATE": "MI",
        "BEACH_TRIBE_CODE": "",
        "HISTORICAL_ID_FLAG": "N",
        "BEACH_LEN_IN_MI": "1.999572496",
        "BEACH_LATEST_BEACH_YEAR": "2023",
        "BEACH_ACCESS": "Public",
        "OWNER_ACCESS": "Public",
        "DORMANT_STATUS": "",
        "START_LATITUDE_MEASURE": "43.7387",
        "START_LONGITUDE_MEASURE": "-83.9467",
        "END_LATITUDE_MEASURE": "43.71",
        "END_LONGITUDE_MEASURE": "-83.9367",
        "SOURCE_MAP_SCALE": "",
        "H_REREFENCE_DATUM_NAME": "NAD83",
        "STATE_CONTACT_FIRST_NAME": "Shannon",
        "STATE_CONTACT_LAST_NAME": "Briggs",
        "STATE_CONTACT_AGENCY_NAME": "\"Department of Environment",
        "STATE_CONTACT_TEL_NUMBER": " Great Lakes",
        "STATE_CONTACT_URL": " and Energy (DEGLE)\"",
        "SOURCE_JOINKEY": "517-284-5526"
    },
    "MI000362": {
        "PRG_INT_CODE": "126535",
        "BEACH_NAME": "Silver Creek Channel",
        "BEACH_COUNTY": "OCEANA",
        "BEACH_STATE": "MI",
        "BEACH_TRIBE_CODE": "",
        "HISTORICAL_ID_FLAG": "N",
        "BEACH_LEN_IN_MI": "0.062137119",
        "BEACH_LATEST_BEACH_YEAR": "2023",
        "BEACH_ACCESS": "Public",
        "OWNER_ACCESS": "Public",
        "DORMANT_STATUS": "",
        "START_LATITUDE_MEASURE": "43.6594",
        "START_LONGITUDE_MEASURE": "-86.5383",
        "END_LATITUDE_MEASURE": "43.656",
        "END_LONGITUDE_MEASURE": "-86.5393",
        "SOURCE_MAP_SCALE": "",
        "H_REREFENCE_DATUM_NAME": "NAD83",
        "STATE_CONTACT_FIRST_NAME": "Shannon",
        "STATE_CONTACT_LAST_NAME": "Briggs",
        "STATE_CONTACT_AGENCY_NAME": "\"Department of Environment",
        "STATE_CONTACT_TEL_NUMBER": " Great Lakes",
        "STATE_CONTACT_URL": " and Energy (DEGLE)\"",
        "SOURCE_JOINKEY": "517-284-5526"
    },
    "MI000363": {
        "PRG_INT_CODE": "126536",
        "BEACH_NAME": "Luna Pier City Beach",
        "BEACH_COUNTY": "MONROE",
        "BEACH_STATE": "MI",
        "BEACH_TRIBE_CODE": "",
        "HISTORICAL_ID_FLAG": "N",
        "BEACH_LEN_IN_MI": "0.416318699",
        "BEACH_LATEST_BEACH_YEAR": "2023",
        "BEACH_ACCESS": "Public",
        "OWNER_ACCESS": "Public",
        "DORMANT_STATUS": "",
        "START_LATITUDE_MEASURE": "41.8051",
        "START_LONGITUDE_MEASURE": "-83.4415",
        "END_LATITUDE_MEASURE": "41.8088",
        "END_LONGITUDE_MEASURE": "-83.4413",
        "SOURCE_MAP_SCALE": "",
        "H_REREFENCE_DATUM_NAME": "NAD83",
        "STATE_CONTACT_FIRST_NAME": "Shannon",
        "STATE_CONTACT_LAST_NAME": "Briggs",
        "STATE_CONTACT_AGENCY_NAME": "\"Department of Environment",
        "STATE_CONTACT_TEL_NUMBER": " Great Lakes",
        "STATE_CONTACT_URL": " and Energy (DEGLE)\"",
        "SOURCE_JOINKEY": "517-284-5526"
    },
    "MI000364": {
        "PRG_INT_CODE": "126537",
        "BEACH_NAME": "Mackinaw City Beach",
        "BEACH_COUNTY": "CHEBOYGAN",
        "BEACH_STATE": "MI",
        "BEACH_TRIBE_CODE": "",
        "HISTORICAL_ID_FLAG": "N",
        "BEACH_LEN_IN_MI": "0.016777022",
        "BEACH_LATEST_BEACH_YEAR": "2023",
        "BEACH_ACCESS": "Public",
        "OWNER_ACCESS": "Public",
        "DORMANT_STATUS": "",
        "START_LATITUDE_MEASURE": "45.7846",
        "START_LONGITUDE_MEASURE": "-84.7242",
        "END_LATITUDE_MEASURE": "45.78",
        "END_LONGITUDE_MEASURE": "-84.7245",
        "SOURCE_MAP_SCALE": "",
        "H_REREFENCE_DATUM_NAME": "NAD83",
        "STATE_CONTACT_FIRST_NAME": "Shannon",
        "STATE_CONTACT_LAST_NAME": "Briggs",
        "STATE_CONTACT_AGENCY_NAME": "\"Department of Environment",
        "STATE_CONTACT_TEL_NUMBER": " Great Lakes",
        "STATE_CONTACT_URL": " and Energy (DEGLE)\"",
        "SOURCE_JOINKEY": "517-284-5526"
    },
    "MI000365": {
        "PRG_INT_CODE": "126538",
        "BEACH_NAME": "Wilderness State Park",
        "BEACH_COUNTY": "EMMET",
        "BEACH_STATE": "MI",
        "BEACH_TRIBE_CODE": "",
        "HISTORICAL_ID_FLAG": "N",
        "BEACH_LEN_IN_MI": "0.325598505",
        "BEACH_LATEST_BEACH_YEAR": "2023",
        "BEACH_ACCESS": "Public",
        "OWNER_ACCESS": "Public",
        "DORMANT_STATUS": "",
        "START_LATITUDE_MEASURE": "45.7477",
        "START_LONGITUDE_MEASURE": "-84.8975",
        "END_LATITUDE_MEASURE": "45.75",
        "END_LONGITUDE_MEASURE": "-84.904",
        "SOURCE_MAP_SCALE": "",
        "H_REREFENCE_DATUM_NAME": "NAD83",
        "STATE_CONTACT_FIRST_NAME": "Shannon",
        "STATE_CONTACT_LAST_NAME": "Briggs",
        "STATE_CONTACT_AGENCY_NAME": "\"Department of Environment",
        "STATE_CONTACT_TEL_NUMBER": " Great Lakes",
        "STATE_CONTACT_URL": " and Energy (DEGLE)\"",
        "SOURCE_JOINKEY": "517-284-5526"
    },
    "MI000366": {
        "PRG_INT_CODE": "126539",
        "BEACH_NAME": "Fifth Avenue Beach",
        "BEACH_COUNTY": "MANISTEE",
        "BEACH_STATE": "MI",
        "BEACH_TRIBE_CODE": "",
        "HISTORICAL_ID_FLAG": "N",
        "BEACH_LEN_IN_MI": "0.186411358",
        "BEACH_LATEST_BEACH_YEAR": "2023",
        "BEACH_ACCESS": "Public",
        "OWNER_ACCESS": "Public",
        "DORMANT_STATUS": "",
        "START_LATITUDE_MEASURE": "44.2537",
        "START_LONGITUDE_MEASURE": "-86.3382",
        "END_LATITUDE_MEASURE": "44.25",
        "END_LONGITUDE_MEASURE": "-86.3417",
        "SOURCE_MAP_SCALE": "",
        "H_REREFENCE_DATUM_NAME": "NAD83",
        "STATE_CONTACT_FIRST_NAME": "Shannon",
        "STATE_CONTACT_LAST_NAME": "Briggs",
        "STATE_CONTACT_AGENCY_NAME": "\"Department of Environment",
        "STATE_CONTACT_TEL_NUMBER": " Great Lakes",
        "STATE_CONTACT_URL": " and Energy (DEGLE)\"",
        "SOURCE_JOINKEY": "517-284-5526"
    },
    "MI000367": {
        "PRG_INT_CODE": "126540",
        "BEACH_NAME": "First Street Beach",
        "BEACH_COUNTY": "MANISTEE",
        "BEACH_STATE": "MI",
        "BEACH_TRIBE_CODE": "",
        "HISTORICAL_ID_FLAG": "N",
        "BEACH_LEN_IN_MI": "0.186411358",
        "BEACH_LATEST_BEACH_YEAR": "2023",
        "BEACH_ACCESS": "Public",
        "OWNER_ACCESS": "Public",
        "DORMANT_STATUS": "",
        "START_LATITUDE_MEASURE": "44.2447",
        "START_LONGITUDE_MEASURE": "-86.3454",
        "END_LATITUDE_MEASURE": "44.24",
        "END_LONGITUDE_MEASURE": "-86.3465",
        "SOURCE_MAP_SCALE": "",
        "H_REREFENCE_DATUM_NAME": "NAD83",
        "STATE_CONTACT_FIRST_NAME": "Shannon",
        "STATE_CONTACT_LAST_NAME": "Briggs",
        "STATE_CONTACT_AGENCY_NAME": "\"Department of Environment",
        "STATE_CONTACT_TEL_NUMBER": " Great Lakes",
        "STATE_CONTACT_URL": " and Energy (DEGLE)\"",
        "SOURCE_JOINKEY": "517-284-5526"
    },
    "MI000368": {
        "PRG_INT_CODE": "126541",
        "BEACH_NAME": "Magoon Creek",
        "BEACH_COUNTY": "MANISTEE",
        "BEACH_STATE": "MI",
        "BEACH_TRIBE_CODE": "",
        "HISTORICAL_ID_FLAG": "N",
        "BEACH_LEN_IN_MI": "0.416318699",
        "BEACH_LATEST_BEACH_YEAR": "2023",
        "BEACH_ACCESS": "Public",
        "OWNER_ACCESS": "Public",
        "DORMANT_STATUS": "",
        "START_LATITUDE_MEASURE": "44.1933",
        "START_LONGITUDE_MEASURE": "-86.376",
        "END_LATITUDE_MEASURE": "44.19",
        "END_LONGITUDE_MEASURE": "-86.3786",
        "SOURCE_MAP_SCALE": "",
        "H_REREFENCE_DATUM_NAME": "NAD83",
        "STATE_CONTACT_FIRST_NAME": "Shannon",
        "STATE_CONTACT_LAST_NAME": "Briggs",
        "STATE_CONTACT_AGENCY_NAME": "\"Department of Environment",
        "STATE_CONTACT_TEL_NUMBER": " Great Lakes",
        "STATE_CONTACT_URL": " and Energy (DEGLE)\"",
        "SOURCE_JOINKEY": "517-284-5526"
    },
    "MI000369": {
        "PRG_INT_CODE": "126542",
        "BEACH_NAME": "Marine City Beach",
        "BEACH_COUNTY": "ST. CLAIR",
        "BEACH_STATE": "MI",
        "BEACH_TRIBE_CODE": "",
        "HISTORICAL_ID_FLAG": "N",
        "BEACH_LEN_IN_MI": "0.124274238",
        "BEACH_LATEST_BEACH_YEAR": "2023",
        "BEACH_ACCESS": "Public",
        "OWNER_ACCESS": "Public",
        "DORMANT_STATUS": "",
        "START_LATITUDE_MEASURE": "42.7239",
        "START_LONGITUDE_MEASURE": "-82.4963",
        "END_LATITUDE_MEASURE": "42.72",
        "END_LONGITUDE_MEASURE": "-82.4964",
        "SOURCE_MAP_SCALE": "",
        "H_REREFENCE_DATUM_NAME": "NAD83",
        "STATE_CONTACT_FIRST_NAME": "Shannon",
        "STATE_CONTACT_LAST_NAME": "Briggs",
        "STATE_CONTACT_AGENCY_NAME": "\"Department of Environment",
        "STATE_CONTACT_TEL_NUMBER": " Great Lakes",
        "STATE_CONTACT_URL": " and Energy (DEGLE)\"",
        "SOURCE_JOINKEY": "517-284-5526"
    },
    "MI000370": {
        "PRG_INT_CODE": "126543",
        "BEACH_NAME": "Marine City Diving Area",
        "BEACH_COUNTY": "ST. CLAIR",
        "BEACH_STATE": "MI",
        "BEACH_TRIBE_CODE": "",
        "HISTORICAL_ID_FLAG": "N",
        "BEACH_LEN_IN_MI": "0.124274238",
        "BEACH_LATEST_BEACH_YEAR": "2023",
        "BEACH_ACCESS": "Public",
        "OWNER_ACCESS": "Public",
        "DORMANT_STATUS": "",
        "START_LATITUDE_MEASURE": "42.7185",
        "START_LONGITUDE_MEASURE": "-82.497",
        "END_LATITUDE_MEASURE": "42.72",
        "END_LONGITUDE_MEASURE": "-82.4975",
        "SOURCE_MAP_SCALE": "",
        "H_REREFENCE_DATUM_NAME": "NAD83",
        "STATE_CONTACT_FIRST_NAME": "Shannon",
        "STATE_CONTACT_LAST_NAME": "Briggs",
        "STATE_CONTACT_AGENCY_NAME": "\"Department of Environment",
        "STATE_CONTACT_TEL_NUMBER": " Great Lakes",
        "STATE_CONTACT_URL": " and Energy (DEGLE)\"",
        "SOURCE_JOINKEY": "517-284-5526"
    },
    "MI000372": {
        "PRG_INT_CODE": "126544",
        "BEACH_NAME": "Marquette South Beach",
        "BEACH_COUNTY": "MARQUETTE",
        "BEACH_STATE": "MI",
        "BEACH_TRIBE_CODE": "",
        "HISTORICAL_ID_FLAG": "N",
        "BEACH_LEN_IN_MI": "0.559234073",
        "BEACH_LATEST_BEACH_YEAR": "2023",
        "BEACH_ACCESS": "Public",
        "OWNER_ACCESS": "Public",
        "DORMANT_STATUS": "",
        "START_LATITUDE_MEASURE": "46.5282",
        "START_LONGITUDE_MEASURE": "-87.3912",
        "END_LATITUDE_MEASURE": "46.53",
        "END_LONGITUDE_MEASURE": "-87.3912",
        "SOURCE_MAP_SCALE": "",
        "H_REREFENCE_DATUM_NAME": "NAD83",
        "STATE_CONTACT_FIRST_NAME": "Shannon",
        "STATE_CONTACT_LAST_NAME": "Briggs",
        "STATE_CONTACT_AGENCY_NAME": "\"Department of Environment",
        "STATE_CONTACT_TEL_NUMBER": " Great Lakes",
        "STATE_CONTACT_URL": " and Energy (DEGLE)\"",
        "SOURCE_JOINKEY": "517-284-5526"
    },
    "MI000373": {
        "PRG_INT_CODE": "126545",
        "BEACH_NAME": "Chrysler Park Beach",
        "BEACH_COUNTY": "ST. CLAIR",
        "BEACH_STATE": "MI",
        "BEACH_TRIBE_CODE": "",
        "HISTORICAL_ID_FLAG": "N",
        "BEACH_LEN_IN_MI": "0.105633103",
        "BEACH_LATEST_BEACH_YEAR": "2023",
        "BEACH_ACCESS": "Public",
        "OWNER_ACCESS": "Public",
        "DORMANT_STATUS": "",
        "START_LATITUDE_MEASURE": "42.9093",
        "START_LONGITUDE_MEASURE": "-82.4633",
        "END_LATITUDE_MEASURE": "42.91",
        "END_LONGITUDE_MEASURE": "-82.464",
        "SOURCE_MAP_SCALE": "",
        "H_REREFENCE_DATUM_NAME": "NAD83",
        "STATE_CONTACT_FIRST_NAME": "Shannon",
        "STATE_CONTACT_LAST_NAME": "Briggs",
        "STATE_CONTACT_AGENCY_NAME": "\"Department of Environment",
        "STATE_CONTACT_TEL_NUMBER": " Great Lakes",
        "STATE_CONTACT_URL": " and Energy (DEGLE)\"",
        "SOURCE_JOINKEY": "517-284-5526"
    },
    "MI000374": {
        "PRG_INT_CODE": "126546",
        "BEACH_NAME": "Henes Park",
        "BEACH_COUNTY": "MENOMINEE",
        "BEACH_STATE": "MI",
        "BEACH_TRIBE_CODE": "",
        "HISTORICAL_ID_FLAG": "N",
        "BEACH_LEN_IN_MI": "0.310685596",
        "BEACH_LATEST_BEACH_YEAR": "2023",
        "BEACH_ACCESS": "Public",
        "OWNER_ACCESS": "Public",
        "DORMANT_STATUS": "",
        "START_LATITUDE_MEASURE": "45.1356",
        "START_LONGITUDE_MEASURE": "-87.5988",
        "END_LATITUDE_MEASURE": "45.14",
        "END_LONGITUDE_MEASURE": "-87.5961",
        "SOURCE_MAP_SCALE": "",
        "H_REREFENCE_DATUM_NAME": "NAD83",
        "STATE_CONTACT_FIRST_NAME": "Shannon",
        "STATE_CONTACT_LAST_NAME": "Briggs",
        "STATE_CONTACT_AGENCY_NAME": "\"Department of Environment",
        "STATE_CONTACT_TEL_NUMBER": " Great Lakes",
        "STATE_CONTACT_URL": " and Energy (DEGLE)\"",
        "SOURCE_JOINKEY": "517-284-5526"
    },
    "MI000379": {
        "PRG_INT_CODE": "126547",
        "BEACH_NAME": "Sterling State Park",
        "BEACH_COUNTY": "MONROE",
        "BEACH_STATE": "MI",
        "BEACH_TRIBE_CODE": "",
        "HISTORICAL_ID_FLAG": "N",
        "BEACH_LEN_IN_MI": "0.295151316",
        "BEACH_LATEST_BEACH_YEAR": "2023",
        "BEACH_ACCESS": "Public",
        "OWNER_ACCESS": "Public",
        "DORMANT_STATUS": "",
        "START_LATITUDE_MEASURE": "41.9168",
        "START_LONGITUDE_MEASURE": "-83.33",
        "END_LATITUDE_MEASURE": "41.92",
        "END_LONGITUDE_MEASURE": "-83.3285",
        "SOURCE_MAP_SCALE": "",
        "H_REREFENCE_DATUM_NAME": "NAD83",
        "STATE_CONTACT_FIRST_NAME": "Shannon",
        "STATE_CONTACT_LAST_NAME": "Briggs",
        "STATE_CONTACT_AGENCY_NAME": "\"Department of Environment",
        "STATE_CONTACT_TEL_NUMBER": " Great Lakes",
        "STATE_CONTACT_URL": " and Energy (DEGLE)\"",
        "SOURCE_JOINKEY": "517-284-5526"
    },
    "MI000382": {
        "PRG_INT_CODE": "126548",
        "BEACH_NAME": "Meinert County Park",
        "BEACH_COUNTY": "MUSKEGON",
        "BEACH_STATE": "MI",
        "BEACH_TRIBE_CODE": "",
        "HISTORICAL_ID_FLAG": "N",
        "BEACH_LEN_IN_MI": "1.289966595",
        "BEACH_LATEST_BEACH_YEAR": "2023",
        "BEACH_ACCESS": "Public",
        "OWNER_ACCESS": "Public",
        "DORMANT_STATUS": "",
        "START_LATITUDE_MEASURE": "43.4685",
        "START_LONGITUDE_MEASURE": "-86.4601",
        "END_LATITUDE_MEASURE": "43.45",
        "END_LONGITUDE_MEASURE": "-86.4548",
        "SOURCE_MAP_SCALE": "",
        "H_REREFENCE_DATUM_NAME": "NAD83",
        "STATE_CONTACT_FIRST_NAME": "Shannon",
        "STATE_CONTACT_LAST_NAME": "Briggs",
        "STATE_CONTACT_AGENCY_NAME": "\"Department of Environment",
        "STATE_CONTACT_TEL_NUMBER": " Great Lakes",
        "STATE_CONTACT_URL": " and Energy (DEGLE)\"",
        "SOURCE_JOINKEY": "517-284-5526"
    },
    "MI000383": {
        "PRG_INT_CODE": "126549",
        "BEACH_NAME": "Lighthouse/Sylvan Beach",
        "BEACH_COUNTY": "MUSKEGON",
        "BEACH_STATE": "MI",
        "BEACH_TRIBE_CODE": "",
        "HISTORICAL_ID_FLAG": "N",
        "BEACH_LEN_IN_MI": "0.416318699",
        "BEACH_LATEST_BEACH_YEAR": "2023",
        "BEACH_ACCESS": "Public",
        "OWNER_ACCESS": "Public",
        "DORMANT_STATUS": "",
        "START_LATITUDE_MEASURE": "43.375",
        "START_LONGITUDE_MEASURE": "-86.4264",
        "END_LATITUDE_MEASURE": "43.37",
        "END_LONGITUDE_MEASURE": "-86.4233",
        "SOURCE_MAP_SCALE": "",
        "H_REREFENCE_DATUM_NAME": "NAD83",
        "STATE_CONTACT_FIRST_NAME": "Shannon",
        "STATE_CONTACT_LAST_NAME": "Briggs",
        "STATE_CONTACT_AGENCY_NAME": "\"Department of Environment",
        "STATE_CONTACT_TEL_NUMBER": " Great Lakes",
        "STATE_CONTACT_URL": " and Energy (DEGLE)\"",
        "SOURCE_JOINKEY": "517-284-5526"
    },
    "MI000385": {
        "PRG_INT_CODE": "126550",
        "BEACH_NAME": "Pere Marquette Park",
        "BEACH_COUNTY": "MUSKEGON",
        "BEACH_STATE": "MI",
        "BEACH_TRIBE_CODE": "",
        "HISTORICAL_ID_FLAG": "N",
        "BEACH_LEN_IN_MI": "0.517602203",
        "BEACH_LATEST_BEACH_YEAR": "2023",
        "BEACH_ACCESS": "Public",
        "OWNER_ACCESS": "Public",
        "DORMANT_STATUS": "",
        "START_LATITUDE_MEASURE": "43.2239",
        "START_LONGITUDE_MEASURE": "-86.3373",
        "END_LATITUDE_MEASURE": "43.22",
        "END_LONGITUDE_MEASURE": "-86.3316",
        "SOURCE_MAP_SCALE": "",
        "H_REREFENCE_DATUM_NAME": "NAD83",
        "STATE_CONTACT_FIRST_NAME": "Shannon",
        "STATE_CONTACT_LAST_NAME": "Briggs",
        "STATE_CONTACT_AGENCY_NAME": "\"Department of Environment",
        "STATE_CONTACT_TEL_NUMBER": " Great Lakes",
        "STATE_CONTACT_URL": " and Energy (DEGLE)\"",
        "SOURCE_JOINKEY": "517-284-5526"
    },
    "MI000388": {
        "PRG_INT_CODE": "126551",
        "BEACH_NAME": "Stony Lake Channel",
        "BEACH_COUNTY": "OCEANA",
        "BEACH_STATE": "MI",
        "BEACH_TRIBE_CODE": "",
        "HISTORICAL_ID_FLAG": "N",
        "BEACH_LEN_IN_MI": "0.093205679",
        "BEACH_LATEST_BEACH_YEAR": "2023",
        "BEACH_ACCESS": "Public",
        "OWNER_ACCESS": "Public",
        "DORMANT_STATUS": "",
        "START_LATITUDE_MEASURE": "43.5641",
        "START_LONGITUDE_MEASURE": "-86.5119",
        "END_LATITUDE_MEASURE": "43.56",
        "END_LONGITUDE_MEASURE": "-86.5098",
        "SOURCE_MAP_SCALE": "",
        "H_REREFENCE_DATUM_NAME": "NAD83",
        "STATE_CONTACT_FIRST_NAME": "Shannon",
        "STATE_CONTACT_LAST_NAME": "Briggs",
        "STATE_CONTACT_AGENCY_NAME": "\"Department of Environment",
        "STATE_CONTACT_TEL_NUMBER": " Great Lakes",
        "STATE_CONTACT_URL": " and Energy (DEGLE)\"",
        "SOURCE_JOINKEY": "517-284-5526"
    },
    "MI000389": {
        "PRG_INT_CODE": "126552",
        "BEACH_NAME": "Claybanks Township Park",
        "BEACH_COUNTY": "OCEANA",
        "BEACH_STATE": "MI",
        "BEACH_TRIBE_CODE": "",
        "HISTORICAL_ID_FLAG": "N",
        "BEACH_LEN_IN_MI": "0.273403324",
        "BEACH_LATEST_BEACH_YEAR": "2023",
        "BEACH_ACCESS": "Public",
        "OWNER_ACCESS": "Public",
        "DORMANT_STATUS": "",
        "START_LATITUDE_MEASURE": "43.5118",
        "START_LONGITUDE_MEASURE": "-86.4776",
        "END_LATITUDE_MEASURE": "43.51",
        "END_LONGITUDE_MEASURE": "-86.4759",
        "SOURCE_MAP_SCALE": "",
        "H_REREFENCE_DATUM_NAME": "NAD83",
        "STATE_CONTACT_FIRST_NAME": "Shannon",
        "STATE_CONTACT_LAST_NAME": "Briggs",
        "STATE_CONTACT_AGENCY_NAME": "\"Department of Environment",
        "STATE_CONTACT_TEL_NUMBER": " Great Lakes",
        "STATE_CONTACT_URL": " and Energy (DEGLE)\"",
        "SOURCE_JOINKEY": "517-284-5526"
    },
    "MI000390": {
        "PRG_INT_CODE": "126553",
        "BEACH_NAME": "Whiskey Creek",
        "BEACH_COUNTY": "OCEANA",
        "BEACH_STATE": "MI",
        "BEACH_TRIBE_CODE": "",
        "HISTORICAL_ID_FLAG": "N",
        "BEACH_LEN_IN_MI": "0.03106856",
        "BEACH_LATEST_BEACH_YEAR": "2023",
        "BEACH_ACCESS": "Public",
        "OWNER_ACCESS": "Public",
        "DORMANT_STATUS": "",
        "START_LATITUDE_MEASURE": "43.5295",
        "START_LONGITUDE_MEASURE": "-86.4881",
        "END_LATITUDE_MEASURE": "43.526",
        "END_LONGITUDE_MEASURE": "-86.486",
        "SOURCE_MAP_SCALE": "",
        "H_REREFENCE_DATUM_NAME": "NAD83",
        "STATE_CONTACT_FIRST_NAME": "Shannon",
        "STATE_CONTACT_LAST_NAME": "Briggs",
        "STATE_CONTACT_AGENCY_NAME": "\"Department of Environment",
        "STATE_CONTACT_TEL_NUMBER": " Great Lakes",
        "STATE_CONTACT_URL": " and Energy (DEGLE)\"",
        "SOURCE_JOINKEY": "517-284-5526"
    },
    "MI000391": {
        "PRG_INT_CODE": "126554",
        "BEACH_NAME": "Jeddo Road Beach",
        "BEACH_COUNTY": "ST. CLAIR",
        "BEACH_STATE": "MI",
        "BEACH_TRIBE_CODE": "",
        "HISTORICAL_ID_FLAG": "N",
        "BEACH_LEN_IN_MI": "0.124274238",
        "BEACH_LATEST_BEACH_YEAR": "2023",
        "BEACH_ACCESS": "Public",
        "OWNER_ACCESS": "Public",
        "DORMANT_STATUS": "",
        "START_LATITUDE_MEASURE": "43.1552",
        "START_LONGITUDE_MEASURE": "-82.4987",
        "END_LATITUDE_MEASURE": "43.1552",
        "END_LONGITUDE_MEASURE": "-82.4987",
        "SOURCE_MAP_SCALE": "",
        "H_REREFENCE_DATUM_NAME": "NAD83",
        "STATE_CONTACT_FIRST_NAME": "Shannon",
        "STATE_CONTACT_LAST_NAME": "Briggs",
        "STATE_CONTACT_AGENCY_NAME": "\"Department of Environment",
        "STATE_CONTACT_TEL_NUMBER": " Great Lakes",
        "STATE_CONTACT_URL": " and Energy (DEGLE)\"",
        "SOURCE_JOINKEY": "517-284-5526"
    },
    "MI000392": {
        "PRG_INT_CODE": "126555",
        "BEACH_NAME": "Burtchville Township Park",
        "BEACH_COUNTY": "ST. CLAIR",
        "BEACH_STATE": "MI",
        "BEACH_TRIBE_CODE": "",
        "HISTORICAL_ID_FLAG": "N",
        "BEACH_LEN_IN_MI": "0.14602223",
        "BEACH_LATEST_BEACH_YEAR": "2023",
        "BEACH_ACCESS": "Public",
        "OWNER_ACCESS": "Public",
        "DORMANT_STATUS": "",
        "START_LATITUDE_MEASURE": "43.1447",
        "START_LONGITUDE_MEASURE": "-82.4946",
        "END_LATITUDE_MEASURE": "43.15",
        "END_LONGITUDE_MEASURE": "-82.4953",
        "SOURCE_MAP_SCALE": "",
        "H_REREFENCE_DATUM_NAME": "NAD83",
        "STATE_CONTACT_FIRST_NAME": "Shannon",
        "STATE_CONTACT_LAST_NAME": "Briggs",
        "STATE_CONTACT_AGENCY_NAME": "\"Department of Environment",
        "STATE_CONTACT_TEL_NUMBER": " Great Lakes",
        "STATE_CONTACT_URL": " and Energy (DEGLE)\"",
        "SOURCE_JOINKEY": "517-284-5526"
    },
    "MI000393": {
        "PRG_INT_CODE": "126556",
        "BEACH_NAME": "Pioneer County Park",
        "BEACH_COUNTY": "MUSKEGON",
        "BEACH_STATE": "MI",
        "BEACH_TRIBE_CODE": "",
        "HISTORICAL_ID_FLAG": "N",
        "BEACH_LEN_IN_MI": "0.310685596",
        "BEACH_LATEST_BEACH_YEAR": "2023",
        "BEACH_ACCESS": "Public",
        "OWNER_ACCESS": "Public",
        "DORMANT_STATUS": "",
        "START_LATITUDE_MEASURE": "43.2844",
        "START_LONGITUDE_MEASURE": "-86.3746",
        "END_LATITUDE_MEASURE": "43.2811",
        "END_LONGITUDE_MEASURE": "-86.3725",
        "SOURCE_MAP_SCALE": "",
        "H_REREFENCE_DATUM_NAME": "NAD83",
        "STATE_CONTACT_FIRST_NAME": "Shannon",
        "STATE_CONTACT_LAST_NAME": "Briggs",
        "STATE_CONTACT_AGENCY_NAME": "\"Department of Environment",
        "STATE_CONTACT_TEL_NUMBER": " Great Lakes",
        "STATE_CONTACT_URL": " and Energy (DEGLE)\"",
        "SOURCE_JOINKEY": "517-284-5526"
    },
    "MI000394": {
        "PRG_INT_CODE": "126557",
        "BEACH_NAME": "Muskegon State Park",
        "BEACH_COUNTY": "MUSKEGON",
        "BEACH_STATE": "MI",
        "BEACH_TRIBE_CODE": "",
        "HISTORICAL_ID_FLAG": "N",
        "BEACH_LEN_IN_MI": "0.630070389",
        "BEACH_LATEST_BEACH_YEAR": "2023",
        "BEACH_ACCESS": "Public",
        "OWNER_ACCESS": "Public",
        "DORMANT_STATUS": "",
        "START_LATITUDE_MEASURE": "43.2442",
        "START_LONGITUDE_MEASURE": "-86.3483",
        "END_LATITUDE_MEASURE": "43.23",
        "END_LONGITUDE_MEASURE": "-86.3423",
        "SOURCE_MAP_SCALE": "",
        "H_REREFENCE_DATUM_NAME": "NAD83",
        "STATE_CONTACT_FIRST_NAME": "Shannon",
        "STATE_CONTACT_LAST_NAME": "Briggs",
        "STATE_CONTACT_AGENCY_NAME": "\"Department of Environment",
        "STATE_CONTACT_TEL_NUMBER": " Great Lakes",
        "STATE_CONTACT_URL": " and Energy (DEGLE)\"",
        "SOURCE_JOINKEY": "517-284-5526"
    },
    "MI000397": {
        "PRG_INT_CODE": "126558",
        "BEACH_NAME": "Oscoda Township Beach",
        "BEACH_COUNTY": "IOSCO",
        "BEACH_STATE": "MI",
        "BEACH_TRIBE_CODE": "",
        "HISTORICAL_ID_FLAG": "N",
        "BEACH_LEN_IN_MI": "0.183304502",
        "BEACH_LATEST_BEACH_YEAR": "2023",
        "BEACH_ACCESS": "Public",
        "OWNER_ACCESS": "Public",
        "DORMANT_STATUS": "",
        "START_LATITUDE_MEASURE": "44.4187",
        "START_LONGITUDE_MEASURE": "-83.3256",
        "END_LATITUDE_MEASURE": "44.42",
        "END_LONGITUDE_MEASURE": "-83.326",
        "SOURCE_MAP_SCALE": "",
        "H_REREFENCE_DATUM_NAME": "NAD83",
        "STATE_CONTACT_FIRST_NAME": "Shannon",
        "STATE_CONTACT_LAST_NAME": "Briggs",
        "STATE_CONTACT_AGENCY_NAME": "\"Department of Environment",
        "STATE_CONTACT_TEL_NUMBER": " Great Lakes",
        "STATE_CONTACT_URL": " and Energy (DEGLE)\"",
        "SOURCE_JOINKEY": "517-284-5526"
    },
    "MI000398": {
        "PRG_INT_CODE": "126559",
        "BEACH_NAME": "3",
        "BEACH_COUNTY": "ALPENA",
        "BEACH_STATE": "MI",
        "BEACH_TRIBE_CODE": "",
        "HISTORICAL_ID_FLAG": "N",
        "BEACH_LEN_IN_MI": "0.062137119",
        "BEACH_LATEST_BEACH_YEAR": "2023",
        "BEACH_ACCESS": "Public",
        "OWNER_ACCESS": "Public",
        "DORMANT_STATUS": "",
        "START_LATITUDE_MEASURE": "44.9246",
        "START_LONGITUDE_MEASURE": "-83.4182",
        "END_LATITUDE_MEASURE": "44.92",
        "END_LONGITUDE_MEASURE": "-83.4185",
        "SOURCE_MAP_SCALE": "",
        "H_REREFENCE_DATUM_NAME": "NAD83",
        "STATE_CONTACT_FIRST_NAME": "Shannon",
        "STATE_CONTACT_LAST_NAME": "Briggs",
        "STATE_CONTACT_AGENCY_NAME": "\"Department of Environment",
        "STATE_CONTACT_TEL_NUMBER": " Great Lakes",
        "STATE_CONTACT_URL": " and Energy (DEGLE)\"",
        "SOURCE_JOINKEY": "517-284-5526"
    },
    "MI000399": {
        "PRG_INT_CODE": "126560",
        "BEACH_NAME": "Mears State Park",
        "BEACH_COUNTY": "OCEANA",
        "BEACH_STATE": "MI",
        "BEACH_TRIBE_CODE": "",
        "HISTORICAL_ID_FLAG": "N",
        "BEACH_LEN_IN_MI": "0.124274238",
        "BEACH_LATEST_BEACH_YEAR": "2023",
        "BEACH_ACCESS": "Public",
        "OWNER_ACCESS": "Public",
        "DORMANT_STATUS": "",
        "START_LATITUDE_MEASURE": "43.7855",
        "START_LONGITUDE_MEASURE": "-86.4396",
        "END_LATITUDE_MEASURE": "43.7822",
        "END_LONGITUDE_MEASURE": "-86.442",
        "SOURCE_MAP_SCALE": "",
        "H_REREFENCE_DATUM_NAME": "NAD83",
        "STATE_CONTACT_FIRST_NAME": "Shannon",
        "STATE_CONTACT_LAST_NAME": "Briggs",
        "STATE_CONTACT_AGENCY_NAME": "\"Department of Environment",
        "STATE_CONTACT_TEL_NUMBER": " Great Lakes",
        "STATE_CONTACT_URL": " and Energy (DEGLE)\"",
        "SOURCE_JOINKEY": "517-284-5526"
    },
    "MI000404": {
        "PRG_INT_CODE": "126561",
        "BEACH_NAME": "Petoskey State Park",
        "BEACH_COUNTY": "EMMET",
        "BEACH_STATE": "MI",
        "BEACH_TRIBE_CODE": "",
        "HISTORICAL_ID_FLAG": "N",
        "BEACH_LEN_IN_MI": "1.056331026",
        "BEACH_LATEST_BEACH_YEAR": "2023",
        "BEACH_ACCESS": "Public",
        "OWNER_ACCESS": "Public",
        "DORMANT_STATUS": "",
        "START_LATITUDE_MEASURE": "45.4099",
        "START_LONGITUDE_MEASURE": "-84.9131",
        "END_LATITUDE_MEASURE": "45.39",
        "END_LONGITUDE_MEASURE": "-84.9145",
        "SOURCE_MAP_SCALE": "",
        "H_REREFENCE_DATUM_NAME": "NAD83",
        "STATE_CONTACT_FIRST_NAME": "Shannon",
        "STATE_CONTACT_LAST_NAME": "Briggs",
        "STATE_CONTACT_AGENCY_NAME": "\"Department of Environment",
        "STATE_CONTACT_TEL_NUMBER": " Great Lakes",
        "STATE_CONTACT_URL": " and Energy (DEGLE)\"",
        "SOURCE_JOINKEY": "517-284-5526"
    },
    "MI000406": {
        "PRG_INT_CODE": "126562",
        "BEACH_NAME": "Pinconning Park",
        "BEACH_COUNTY": "BAY",
        "BEACH_STATE": "MI",
        "BEACH_TRIBE_CODE": "",
        "HISTORICAL_ID_FLAG": "N",
        "BEACH_LEN_IN_MI": "1.250198838",
        "BEACH_LATEST_BEACH_YEAR": "2023",
        "BEACH_ACCESS": "Public",
        "OWNER_ACCESS": "Public",
        "DORMANT_STATUS": "",
        "START_LATITUDE_MEASURE": "43.8607",
        "START_LONGITUDE_MEASURE": "-83.9237",
        "END_LATITUDE_MEASURE": "43.8477",
        "END_LONGITUDE_MEASURE": "-83.9212",
        "SOURCE_MAP_SCALE": "",
        "H_REREFENCE_DATUM_NAME": "NAD83",
        "STATE_CONTACT_FIRST_NAME": "Shannon",
        "STATE_CONTACT_LAST_NAME": "Briggs",
        "STATE_CONTACT_AGENCY_NAME": "\"Department of Environment",
        "STATE_CONTACT_TEL_NUMBER": " Great Lakes",
        "STATE_CONTACT_URL": " and Energy (DEGLE)\"",
        "SOURCE_JOINKEY": "517-284-5526"
    },
    "MI000407": {
        "PRG_INT_CODE": "126563",
        "BEACH_NAME": "Lakeside Beach",
        "BEACH_COUNTY": "ST. CLAIR",
        "BEACH_STATE": "MI",
        "BEACH_TRIBE_CODE": "",
        "HISTORICAL_ID_FLAG": "N",
        "BEACH_LEN_IN_MI": "0.497096954",
        "BEACH_LATEST_BEACH_YEAR": "2023",
        "BEACH_ACCESS": "Public",
        "OWNER_ACCESS": "Public",
        "DORMANT_STATUS": "",
        "START_LATITUDE_MEASURE": "43.0214",
        "START_LONGITUDE_MEASURE": "-82.4303",
        "END_LATITUDE_MEASURE": "43.0189",
        "END_LONGITUDE_MEASURE": "-82.4282",
        "SOURCE_MAP_SCALE": "",
        "H_REREFENCE_DATUM_NAME": "NAD83",
        "STATE_CONTACT_FIRST_NAME": "Shannon",
        "STATE_CONTACT_LAST_NAME": "Briggs",
        "STATE_CONTACT_AGENCY_NAME": "\"Department of Environment",
        "STATE_CONTACT_TEL_NUMBER": " Great Lakes",
        "STATE_CONTACT_URL": " and Energy (DEGLE)\"",
        "SOURCE_JOINKEY": "517-284-5526"
    },
    "MI000408": {
        "PRG_INT_CODE": "126564",
        "BEACH_NAME": "Holland Road Beach",
        "BEACH_COUNTY": "ST. CLAIR",
        "BEACH_STATE": "MI",
        "BEACH_TRIBE_CODE": "",
        "HISTORICAL_ID_FLAG": "N",
        "BEACH_LEN_IN_MI": "0.062137119",
        "BEACH_LATEST_BEACH_YEAR": "2023",
        "BEACH_ACCESS": "Public",
        "OWNER_ACCESS": "Public",
        "DORMANT_STATUS": "",
        "START_LATITUDE_MEASURE": "43.0179",
        "START_LONGITUDE_MEASURE": "-82.4272",
        "END_LATITUDE_MEASURE": "43.02",
        "END_LONGITUDE_MEASURE": "-82.4276",
        "SOURCE_MAP_SCALE": "",
        "H_REREFENCE_DATUM_NAME": "NAD83",
        "STATE_CONTACT_FIRST_NAME": "Shannon",
        "STATE_CONTACT_LAST_NAME": "Briggs",
        "STATE_CONTACT_AGENCY_NAME": "\"Department of Environment",
        "STATE_CONTACT_TEL_NUMBER": " Great Lakes",
        "STATE_CONTACT_URL": " and Energy (DEGLE)\"",
        "SOURCE_JOINKEY": "517-284-5526"
    },
    "MI000409": {
        "PRG_INT_CODE": "126565",
        "BEACH_NAME": "Conger-Lighthouse Beach",
        "BEACH_COUNTY": "ST. CLAIR",
        "BEACH_STATE": "MI",
        "BEACH_TRIBE_CODE": "",
        "HISTORICAL_ID_FLAG": "N",
        "BEACH_LEN_IN_MI": "0.621371192",
        "BEACH_LATEST_BEACH_YEAR": "2023",
        "BEACH_ACCESS": "Public",
        "OWNER_ACCESS": "Public",
        "DORMANT_STATUS": "",
        "START_LATITUDE_MEASURE": "43.0123",
        "START_LONGITUDE_MEASURE": "-82.4244",
        "END_LATITUDE_MEASURE": "43.0149",
        "END_LONGITUDE_MEASURE": "-82.4255",
        "SOURCE_MAP_SCALE": "",
        "H_REREFENCE_DATUM_NAME": "NAD83",
        "STATE_CONTACT_FIRST_NAME": "Shannon",
        "STATE_CONTACT_LAST_NAME": "Briggs",
        "STATE_CONTACT_AGENCY_NAME": "\"Department of Environment",
        "STATE_CONTACT_TEL_NUMBER": " Great Lakes",
        "STATE_CONTACT_URL": " and Energy (DEGLE)\"",
        "SOURCE_JOINKEY": "517-284-5526"
    },
    "MI000410": {
        "PRG_INT_CODE": "126566",
        "BEACH_NAME": "Twin Springs Campground and Bathing Beach",
        "BEACH_COUNTY": "DELTA",
        "BEACH_STATE": "MI",
        "BEACH_TRIBE_CODE": "",
        "HISTORICAL_ID_FLAG": "N",
        "BEACH_LEN_IN_MI": "0.273403324",
        "BEACH_LATEST_BEACH_YEAR": "2023",
        "BEACH_ACCESS": "Public",
        "OWNER_ACCESS": "Public",
        "DORMANT_STATUS": "",
        "START_LATITUDE_MEASURE": "45.8354",
        "START_LONGITUDE_MEASURE": "-86.9908",
        "END_LATITUDE_MEASURE": "45.83",
        "END_LONGITUDE_MEASURE": "-86.9952",
        "SOURCE_MAP_SCALE": "",
        "H_REREFENCE_DATUM_NAME": "NAD83",
        "STATE_CONTACT_FIRST_NAME": "Shannon",
        "STATE_CONTACT_LAST_NAME": "Briggs",
        "STATE_CONTACT_AGENCY_NAME": "\"Department of Environment",
        "STATE_CONTACT_TEL_NUMBER": " Great Lakes",
        "STATE_CONTACT_URL": " and Energy (DEGLE)\"",
        "SOURCE_JOINKEY": "517-284-5526"
    },
    "MI000416": {
        "PRG_INT_CODE": "126568",
        "BEACH_NAME": "Kiwanis Beach",
        "BEACH_COUNTY": "MACKINAC",
        "BEACH_STATE": "MI",
        "BEACH_TRIBE_CODE": "",
        "HISTORICAL_ID_FLAG": "N",
        "BEACH_LEN_IN_MI": "0.118060526",
        "BEACH_LATEST_BEACH_YEAR": "2023",
        "BEACH_ACCESS": "Public",
        "OWNER_ACCESS": "Public",
        "DORMANT_STATUS": "",
        "START_LATITUDE_MEASURE": "45.8673",
        "START_LONGITUDE_MEASURE": "-84.721",
        "END_LATITUDE_MEASURE": "45.87",
        "END_LONGITUDE_MEASURE": "-84.7273",
        "SOURCE_MAP_SCALE": "",
        "H_REREFENCE_DATUM_NAME": "NAD83",
        "STATE_CONTACT_FIRST_NAME": "Shannon",
        "STATE_CONTACT_LAST_NAME": "Briggs",
        "STATE_CONTACT_AGENCY_NAME": "\"Department of Environment",
        "STATE_CONTACT_TEL_NUMBER": " Great Lakes",
        "STATE_CONTACT_URL": " and Energy (DEGLE)\"",
        "SOURCE_JOINKEY": "517-284-5526"
    },
    "MI000417": {
        "PRG_INT_CODE": "126569",
        "BEACH_NAME": "Cables Bay Beach",
        "BEACH_COUNTY": "CHARLEVOIX",
        "BEACH_STATE": "MI",
        "BEACH_TRIBE_CODE": "",
        "HISTORICAL_ID_FLAG": "N",
        "BEACH_LEN_IN_MI": "0.246062992",
        "BEACH_LATEST_BEACH_YEAR": "2023",
        "BEACH_ACCESS": "Public",
        "OWNER_ACCESS": "Public",
        "DORMANT_STATUS": "",
        "START_LATITUDE_MEASURE": "45.7531",
        "START_LONGITUDE_MEASURE": "-85.5125",
        "END_LATITUDE_MEASURE": "45.7521",
        "END_LONGITUDE_MEASURE": "-85.5174",
        "SOURCE_MAP_SCALE": "",
        "H_REREFENCE_DATUM_NAME": "NAD83",
        "STATE_CONTACT_FIRST_NAME": "Shannon",
        "STATE_CONTACT_LAST_NAME": "Briggs",
        "STATE_CONTACT_AGENCY_NAME": "\"Department of Environment",
        "STATE_CONTACT_TEL_NUMBER": " Great Lakes",
        "STATE_CONTACT_URL": " and Energy (DEGLE)\"",
        "SOURCE_JOINKEY": "517-284-5526"
    },
    "MI000418": {
        "PRG_INT_CODE": "126570",
        "BEACH_NAME": "Iron Ore Bay Beach",
        "BEACH_COUNTY": "CHARLEVOIX",
        "BEACH_STATE": "MI",
        "BEACH_TRIBE_CODE": "",
        "HISTORICAL_ID_FLAG": "N",
        "BEACH_LEN_IN_MI": "0.756830112",
        "BEACH_LATEST_BEACH_YEAR": "2023",
        "BEACH_ACCESS": "Public",
        "OWNER_ACCESS": "Public",
        "DORMANT_STATUS": "",
        "START_LATITUDE_MEASURE": "45.5741",
        "START_LONGITUDE_MEASURE": "-85.5766",
        "END_LATITUDE_MEASURE": "45.5779",
        "END_LONGITUDE_MEASURE": "-85.5915",
        "SOURCE_MAP_SCALE": "",
        "H_REREFENCE_DATUM_NAME": "NAD83",
        "STATE_CONTACT_FIRST_NAME": "Shannon",
        "STATE_CONTACT_LAST_NAME": "Briggs",
        "STATE_CONTACT_AGENCY_NAME": "\"Department of Environment",
        "STATE_CONTACT_TEL_NUMBER": " Great Lakes",
        "STATE_CONTACT_URL": " and Energy (DEGLE)\"",
        "SOURCE_JOINKEY": "517-284-5526"
    },
    "MI000419": {
        "PRG_INT_CODE": "126571",
        "BEACH_NAME": "Harbor Beach",
        "BEACH_COUNTY": "CHARLEVOIX",
        "BEACH_STATE": "MI",
        "BEACH_TRIBE_CODE": "",
        "HISTORICAL_ID_FLAG": "N",
        "BEACH_LEN_IN_MI": "0.055923407",
        "BEACH_LATEST_BEACH_YEAR": "2023",
        "BEACH_ACCESS": "Public",
        "OWNER_ACCESS": "Public",
        "DORMANT_STATUS": "",
        "START_LATITUDE_MEASURE": "45.744",
        "START_LONGITUDE_MEASURE": "-85.5199",
        "END_LATITUDE_MEASURE": "45.7432",
        "END_LONGITUDE_MEASURE": "-85.5201",
        "SOURCE_MAP_SCALE": "",
        "H_REREFENCE_DATUM_NAME": "NAD83",
        "STATE_CONTACT_FIRST_NAME": "Shannon",
        "STATE_CONTACT_LAST_NAME": "Briggs",
        "STATE_CONTACT_AGENCY_NAME": "\"Department of Environment",
        "STATE_CONTACT_TEL_NUMBER": " Great Lakes",
        "STATE_CONTACT_URL": " and Energy (DEGLE)\"",
        "SOURCE_JOINKEY": "517-284-5526"
    },
    "MI000420": {
        "PRG_INT_CODE": "126572",
        "BEACH_NAME": "Bill Wagner Memorial Campground Beach",
        "BEACH_COUNTY": "CHARLEVOIX",
        "BEACH_STATE": "MI",
        "BEACH_TRIBE_CODE": "",
        "HISTORICAL_ID_FLAG": "N",
        "BEACH_LEN_IN_MI": "0.262218643",
        "BEACH_LATEST_BEACH_YEAR": "2023",
        "BEACH_ACCESS": "Public",
        "OWNER_ACCESS": "Public",
        "DORMANT_STATUS": "",
        "START_LATITUDE_MEASURE": "45.6589",
        "START_LONGITUDE_MEASURE": "-85.4958",
        "END_LATITUDE_MEASURE": "45.6558",
        "END_LONGITUDE_MEASURE": "-85.4929",
        "SOURCE_MAP_SCALE": "",
        "H_REREFENCE_DATUM_NAME": "NAD83",
        "STATE_CONTACT_FIRST_NAME": "Shannon",
        "STATE_CONTACT_LAST_NAME": "Briggs",
        "STATE_CONTACT_AGENCY_NAME": "\"Department of Environment",
        "STATE_CONTACT_TEL_NUMBER": " Great Lakes",
        "STATE_CONTACT_URL": " and Energy (DEGLE)\"",
        "SOURCE_JOINKEY": "517-284-5526"
    },
    "MI000423": {
        "PRG_INT_CODE": "126573",
        "BEACH_NAME": "Lighthouse Beach at Silver Lake State Park",
        "BEACH_COUNTY": "OCEANA",
        "BEACH_STATE": "MI",
        "BEACH_TRIBE_CODE": "",
        "HISTORICAL_ID_FLAG": "N",
        "BEACH_LEN_IN_MI": "0.29204446",
        "BEACH_LATEST_BEACH_YEAR": "2023",
        "BEACH_ACCESS": "Public",
        "OWNER_ACCESS": "Public",
        "DORMANT_STATUS": "",
        "START_LATITUDE_MEASURE": "43.6504",
        "START_LONGITUDE_MEASURE": "-86.5403",
        "END_LATITUDE_MEASURE": "43.65",
        "END_LONGITUDE_MEASURE": "-86.5406",
        "SOURCE_MAP_SCALE": "",
        "H_REREFENCE_DATUM_NAME": "NAD83",
        "STATE_CONTACT_FIRST_NAME": "Shannon",
        "STATE_CONTACT_LAST_NAME": "Briggs",
        "STATE_CONTACT_AGENCY_NAME": "\"Department of Environment",
        "STATE_CONTACT_TEL_NUMBER": " Great Lakes",
        "STATE_CONTACT_URL": " and Energy (DEGLE)\"",
        "SOURCE_JOINKEY": "517-284-5526"
    },
    "MI000424": {
        "PRG_INT_CODE": "126574",
        "BEACH_NAME": "South Haven North Beach",
        "BEACH_COUNTY": "VAN BUREN",
        "BEACH_STATE": "MI",
        "BEACH_TRIBE_CODE": "",
        "HISTORICAL_ID_FLAG": "N",
        "BEACH_LEN_IN_MI": "0.260975901",
        "BEACH_LATEST_BEACH_YEAR": "2023",
        "BEACH_ACCESS": "Public",
        "OWNER_ACCESS": "Public",
        "DORMANT_STATUS": "",
        "START_LATITUDE_MEASURE": "42.4112",
        "START_LONGITUDE_MEASURE": "-86.2781",
        "END_LATITUDE_MEASURE": "42.41",
        "END_LONGITUDE_MEASURE": "-86.2802",
        "SOURCE_MAP_SCALE": "",
        "H_REREFENCE_DATUM_NAME": "NAD83",
        "STATE_CONTACT_FIRST_NAME": "Shannon",
        "STATE_CONTACT_LAST_NAME": "Briggs",
        "STATE_CONTACT_AGENCY_NAME": "\"Department of Environment",
        "STATE_CONTACT_TEL_NUMBER": " Great Lakes",
        "STATE_CONTACT_URL": " and Energy (DEGLE)\"",
        "SOURCE_JOINKEY": "517-284-5526"
    },
    "MI000428": {
        "PRG_INT_CODE": "126575",
        "BEACH_NAME": "Tawas City Park",
        "BEACH_COUNTY": "IOSCO",
        "BEACH_STATE": "MI",
        "BEACH_TRIBE_CODE": "",
        "HISTORICAL_ID_FLAG": "N",
        "BEACH_LEN_IN_MI": "0.221829516",
        "BEACH_LATEST_BEACH_YEAR": "2023",
        "BEACH_ACCESS": "Public",
        "OWNER_ACCESS": "Public",
        "DORMANT_STATUS": "",
        "START_LATITUDE_MEASURE": "44.2667",
        "START_LONGITUDE_MEASURE": "-83.5183",
        "END_LATITUDE_MEASURE": "44.2683",
        "END_LONGITUDE_MEASURE": "-83.5147",
        "SOURCE_MAP_SCALE": "",
        "H_REREFENCE_DATUM_NAME": "NAD83",
        "STATE_CONTACT_FIRST_NAME": "Shannon",
        "STATE_CONTACT_LAST_NAME": "Briggs",
        "STATE_CONTACT_AGENCY_NAME": "\"Department of Environment",
        "STATE_CONTACT_TEL_NUMBER": " Great Lakes",
        "STATE_CONTACT_URL": " and Energy (DEGLE)\"",
        "SOURCE_JOINKEY": "517-284-5526"
    },
    "MI000431": {
        "PRG_INT_CODE": "126576",
        "BEACH_NAME": "East Bay Township Four Mile Road",
        "BEACH_COUNTY": "GRAND TRAVERSE",
        "BEACH_STATE": "MI",
        "BEACH_TRIBE_CODE": "",
        "HISTORICAL_ID_FLAG": "N",
        "BEACH_LEN_IN_MI": "0.248548477",
        "BEACH_LATEST_BEACH_YEAR": "2023",
        "BEACH_ACCESS": "Public",
        "OWNER_ACCESS": "Public",
        "DORMANT_STATUS": "",
        "START_LATITUDE_MEASURE": "44.747",
        "START_LONGITUDE_MEASURE": "-85.534",
        "END_LATITUDE_MEASURE": "44.75",
        "END_LONGITUDE_MEASURE": "-85.5391",
        "SOURCE_MAP_SCALE": "",
        "H_REREFENCE_DATUM_NAME": "NAD83",
        "STATE_CONTACT_FIRST_NAME": "Shannon",
        "STATE_CONTACT_LAST_NAME": "Briggs",
        "STATE_CONTACT_AGENCY_NAME": "\"Department of Environment",
        "STATE_CONTACT_TEL_NUMBER": " Great Lakes",
        "STATE_CONTACT_URL": " and Energy (DEGLE)\"",
        "SOURCE_JOINKEY": "517-284-5526"
    },
    "MI000433": {
        "PRG_INT_CODE": "126577",
        "BEACH_NAME": "Clinch Park",
        "BEACH_COUNTY": "GRAND TRAVERSE",
        "BEACH_STATE": "MI",
        "BEACH_TRIBE_CODE": "",
        "HISTORICAL_ID_FLAG": "N",
        "BEACH_LEN_IN_MI": "0.416318699",
        "BEACH_LATEST_BEACH_YEAR": "2023",
        "BEACH_ACCESS": "Public",
        "OWNER_ACCESS": "Public",
        "DORMANT_STATUS": "",
        "START_LATITUDE_MEASURE": "44.766",
        "START_LONGITUDE_MEASURE": "-85.6198",
        "END_LATITUDE_MEASURE": "44.765",
        "END_LONGITUDE_MEASURE": "-85.6129",
        "SOURCE_MAP_SCALE": "",
        "H_REREFENCE_DATUM_NAME": "NAD83",
        "STATE_CONTACT_FIRST_NAME": "Shannon",
        "STATE_CONTACT_LAST_NAME": "Briggs",
        "STATE_CONTACT_AGENCY_NAME": "\"Department of Environment",
        "STATE_CONTACT_TEL_NUMBER": " Great Lakes",
        "STATE_CONTACT_URL": " and Energy (DEGLE)\"",
        "SOURCE_JOINKEY": "517-284-5526"
    },
    "MI000435": {
        "PRG_INT_CODE": "126578",
        "BEACH_NAME": "Old Mission Park",
        "BEACH_COUNTY": "GRAND TRAVERSE",
        "BEACH_STATE": "MI",
        "BEACH_TRIBE_CODE": "",
        "HISTORICAL_ID_FLAG": "Y",
        "BEACH_LEN_IN_MI": "0.416318699",
        "BEACH_LATEST_BEACH_YEAR": "2023",
        "BEACH_ACCESS": "Public",
        "OWNER_ACCESS": "Public",
        "DORMANT_STATUS": "",
        "START_LATITUDE_MEASURE": "44.76492092",
        "START_LONGITUDE_MEASURE": "-85.62553015",
        "END_LATITUDE_MEASURE": "44.76453753",
        "END_LONGITUDE_MEASURE": "-85.61689237",
        "SOURCE_MAP_SCALE": "100000",
        "H_REREFENCE_DATUM_NAME": "NAD83",
        "STATE_CONTACT_FIRST_NAME": "Shannon",
        "STATE_CONTACT_LAST_NAME": "Briggs",
        "STATE_CONTACT_AGENCY_NAME": "\"Department of Environment",
        "STATE_CONTACT_TEL_NUMBER": " Great Lakes",
        "STATE_CONTACT_URL": " and Energy (DEGLE)\"",
        "SOURCE_JOINKEY": "517-284-5526"
    },
    "MI000436": {
        "PRG_INT_CODE": "126579",
        "BEACH_NAME": "East Bay Park (Milliken Park)",
        "BEACH_COUNTY": "GRAND TRAVERSE",
        "BEACH_STATE": "MI",
        "BEACH_TRIBE_CODE": "",
        "HISTORICAL_ID_FLAG": "N",
        "BEACH_LEN_IN_MI": "0.249169848",
        "BEACH_LATEST_BEACH_YEAR": "2023",
        "BEACH_ACCESS": "Public",
        "OWNER_ACCESS": "Public",
        "DORMANT_STATUS": "",
        "START_LATITUDE_MEASURE": "44.7613",
        "START_LONGITUDE_MEASURE": "-85.5765",
        "END_LATITUDE_MEASURE": "44.7639",
        "END_LONGITUDE_MEASURE": "-85.5742",
        "SOURCE_MAP_SCALE": "",
        "H_REREFENCE_DATUM_NAME": "NAD83",
        "STATE_CONTACT_FIRST_NAME": "Shannon",
        "STATE_CONTACT_LAST_NAME": "Briggs",
        "STATE_CONTACT_AGENCY_NAME": "\"Department of Environment",
        "STATE_CONTACT_TEL_NUMBER": " Great Lakes",
        "STATE_CONTACT_URL": " and Energy (DEGLE)\"",
        "SOURCE_JOINKEY": "517-284-5526"
    },
    "MI000437": {
        "PRG_INT_CODE": "126580",
        "BEACH_NAME": "Old Mission Lighthouse",
        "BEACH_COUNTY": "GRAND TRAVERSE",
        "BEACH_STATE": "MI",
        "BEACH_TRIBE_CODE": "",
        "HISTORICAL_ID_FLAG": "N",
        "BEACH_LEN_IN_MI": "0.132352064",
        "BEACH_LATEST_BEACH_YEAR": "2023",
        "BEACH_ACCESS": "Public",
        "OWNER_ACCESS": "Public",
        "DORMANT_STATUS": "",
        "START_LATITUDE_MEASURE": "44.9913",
        "START_LONGITUDE_MEASURE": "-85.4771",
        "END_LATITUDE_MEASURE": "44.99",
        "END_LONGITUDE_MEASURE": "-85.4817",
        "SOURCE_MAP_SCALE": "",
        "H_REREFENCE_DATUM_NAME": "NAD83",
        "STATE_CONTACT_FIRST_NAME": "Shannon",
        "STATE_CONTACT_LAST_NAME": "Briggs",
        "STATE_CONTACT_AGENCY_NAME": "\"Department of Environment",
        "STATE_CONTACT_TEL_NUMBER": " Great Lakes",
        "STATE_CONTACT_URL": " and Energy (DEGLE)\"",
        "SOURCE_JOINKEY": "517-284-5526"
    },
    "MI000439": {
        "PRG_INT_CODE": "126581",
        "BEACH_NAME": "Bryant Park Beach",
        "BEACH_COUNTY": "GRAND TRAVERSE",
        "BEACH_STATE": "MI",
        "BEACH_TRIBE_CODE": "",
        "HISTORICAL_ID_FLAG": "N",
        "BEACH_LEN_IN_MI": "0.080778255",
        "BEACH_LATEST_BEACH_YEAR": "2023",
        "BEACH_ACCESS": "Public",
        "OWNER_ACCESS": "Public",
        "DORMANT_STATUS": "",
        "START_LATITUDE_MEASURE": "44.7672",
        "START_LONGITUDE_MEASURE": "-85.5954",
        "END_LATITUDE_MEASURE": "44.77",
        "END_LONGITUDE_MEASURE": "-85.5967",
        "SOURCE_MAP_SCALE": "",
        "H_REREFENCE_DATUM_NAME": "NAD83",
        "STATE_CONTACT_FIRST_NAME": "Shannon",
        "STATE_CONTACT_LAST_NAME": "Briggs",
        "STATE_CONTACT_AGENCY_NAME": "\"Department of Environment",
        "STATE_CONTACT_TEL_NUMBER": " Great Lakes",
        "STATE_CONTACT_URL": " and Energy (DEGLE)\"",
        "SOURCE_JOINKEY": "517-284-5526"
    },
    "MI000440": {
        "PRG_INT_CODE": "126582",
        "BEACH_NAME": "Power Island Bay Park",
        "BEACH_COUNTY": "GRAND TRAVERSE",
        "BEACH_STATE": "MI",
        "BEACH_TRIBE_CODE": "",
        "HISTORICAL_ID_FLAG": "N",
        "BEACH_LEN_IN_MI": "2.793684879",
        "BEACH_LATEST_BEACH_YEAR": "2023",
        "BEACH_ACCESS": "Public",
        "OWNER_ACCESS": "Public",
        "DORMANT_STATUS": "",
        "START_LATITUDE_MEASURE": "44.767",
        "START_LONGITUDE_MEASURE": "-85.6261",
        "END_LATITUDE_MEASURE": "44.7752",
        "END_LONGITUDE_MEASURE": "-85.6405",
        "SOURCE_MAP_SCALE": "",
        "H_REREFENCE_DATUM_NAME": "NAD83",
        "STATE_CONTACT_FIRST_NAME": "Shannon",
        "STATE_CONTACT_LAST_NAME": "Briggs",
        "STATE_CONTACT_AGENCY_NAME": "\"Department of Environment",
        "STATE_CONTACT_TEL_NUMBER": " Great Lakes",
        "STATE_CONTACT_URL": " and Energy (DEGLE)\"",
        "SOURCE_JOINKEY": "517-284-5526"
    },
    "MI000441": {
        "PRG_INT_CODE": "126583",
        "BEACH_NAME": "West End Beach",
        "BEACH_COUNTY": "GRAND TRAVERSE",
        "BEACH_STATE": "MI",
        "BEACH_TRIBE_CODE": "",
        "HISTORICAL_ID_FLAG": "Y",
        "BEACH_LEN_IN_MI": "0.416318699",
        "BEACH_LATEST_BEACH_YEAR": "2023",
        "BEACH_ACCESS": "Public",
        "OWNER_ACCESS": "Public",
        "DORMANT_STATUS": "",
        "START_LATITUDE_MEASURE": "44.7675",
        "START_LONGITUDE_MEASURE": "-85.6277",
        "END_LATITUDE_MEASURE": "44.78",
        "END_LONGITUDE_MEASURE": "-85.6407",
        "SOURCE_MAP_SCALE": "",
        "H_REREFENCE_DATUM_NAME": "NAD83",
        "STATE_CONTACT_FIRST_NAME": "Shannon",
        "STATE_CONTACT_LAST_NAME": "Briggs",
        "STATE_CONTACT_AGENCY_NAME": "\"Department of Environment",
        "STATE_CONTACT_TEL_NUMBER": " Great Lakes",
        "STATE_CONTACT_URL": " and Energy (DEGLE)\"",
        "SOURCE_JOINKEY": "517-284-5526"
    },
    "MI000449": {
        "PRG_INT_CODE": "126584",
        "BEACH_NAME": "Duck Lake Channel Beach",
        "BEACH_COUNTY": "MUSKEGON",
        "BEACH_STATE": "MI",
        "BEACH_TRIBE_CODE": "",
        "HISTORICAL_ID_FLAG": "N",
        "BEACH_LEN_IN_MI": "0.50020381",
        "BEACH_LATEST_BEACH_YEAR": "2023",
        "BEACH_ACCESS": "Public",
        "OWNER_ACCESS": "Public",
        "DORMANT_STATUS": "",
        "START_LATITUDE_MEASURE": "43.3479",
        "START_LONGITUDE_MEASURE": "-86.4125",
        "END_LATITUDE_MEASURE": "43.34",
        "END_LONGITUDE_MEASURE": "-86.4078",
        "SOURCE_MAP_SCALE": "",
        "H_REREFENCE_DATUM_NAME": "NAD83",
        "STATE_CONTACT_FIRST_NAME": "Shannon",
        "STATE_CONTACT_LAST_NAME": "Briggs",
        "STATE_CONTACT_AGENCY_NAME": "\"Department of Environment",
        "STATE_CONTACT_TEL_NUMBER": " Great Lakes",
        "STATE_CONTACT_URL": " and Energy (DEGLE)\"",
        "SOURCE_JOINKEY": "517-284-5526"
    },
    "MI000452": {
        "PRG_INT_CODE": "126585",
        "BEACH_NAME": "Bird Creek County Park",
        "BEACH_COUNTY": "HURON",
        "BEACH_STATE": "MI",
        "BEACH_TRIBE_CODE": "",
        "HISTORICAL_ID_FLAG": "N",
        "BEACH_LEN_IN_MI": "0.136080291",
        "BEACH_LATEST_BEACH_YEAR": "2023",
        "BEACH_ACCESS": "Public",
        "OWNER_ACCESS": "Public",
        "DORMANT_STATUS": "",
        "START_LATITUDE_MEASURE": "44.0488",
        "START_LONGITUDE_MEASURE": "-82.991",
        "END_LATITUDE_MEASURE": "44.05",
        "END_LONGITUDE_MEASURE": "-82.9936",
        "SOURCE_MAP_SCALE": "",
        "H_REREFENCE_DATUM_NAME": "NAD83",
        "STATE_CONTACT_FIRST_NAME": "Shannon",
        "STATE_CONTACT_LAST_NAME": "Briggs",
        "STATE_CONTACT_AGENCY_NAME": "\"Department of Environment",
        "STATE_CONTACT_TEL_NUMBER": " Great Lakes",
        "STATE_CONTACT_URL": " and Energy (DEGLE)\"",
        "SOURCE_JOINKEY": "517-284-5526"
    },
    "MI000455": {
        "PRG_INT_CODE": "126586",
        "BEACH_NAME": "Caseville County Park",
        "BEACH_COUNTY": "HURON",
        "BEACH_STATE": "MI",
        "BEACH_TRIBE_CODE": "",
        "HISTORICAL_ID_FLAG": "N",
        "BEACH_LEN_IN_MI": "0.280859779",
        "BEACH_LATEST_BEACH_YEAR": "2023",
        "BEACH_ACCESS": "Public",
        "OWNER_ACCESS": "Public",
        "DORMANT_STATUS": "",
        "START_LATITUDE_MEASURE": "43.9502",
        "START_LONGITUDE_MEASURE": "-83.2743",
        "END_LATITUDE_MEASURE": "43.95",
        "END_LONGITUDE_MEASURE": "-83.2785",
        "SOURCE_MAP_SCALE": "",
        "H_REREFENCE_DATUM_NAME": "NAD83",
        "STATE_CONTACT_FIRST_NAME": "Shannon",
        "STATE_CONTACT_LAST_NAME": "Briggs",
        "STATE_CONTACT_AGENCY_NAME": "\"Department of Environment",
        "STATE_CONTACT_TEL_NUMBER": " Great Lakes",
        "STATE_CONTACT_URL": " and Energy (DEGLE)\"",
        "SOURCE_JOINKEY": "517-284-5526"
    },
    "MI000456": {
        "PRG_INT_CODE": "126587",
        "BEACH_NAME": "Harbor Beach City Park",
        "BEACH_COUNTY": "HURON",
        "BEACH_STATE": "MI",
        "BEACH_TRIBE_CODE": "",
        "HISTORICAL_ID_FLAG": "N",
        "BEACH_LEN_IN_MI": "0.200081524",
        "BEACH_LATEST_BEACH_YEAR": "2023",
        "BEACH_ACCESS": "Public",
        "OWNER_ACCESS": "Public",
        "DORMANT_STATUS": "",
        "START_LATITUDE_MEASURE": "43.8432",
        "START_LONGITUDE_MEASURE": "-82.6478",
        "END_LATITUDE_MEASURE": "43.8405",
        "END_LONGITUDE_MEASURE": "-82.6469",
        "SOURCE_MAP_SCALE": "",
        "H_REREFENCE_DATUM_NAME": "NAD83",
        "STATE_CONTACT_FIRST_NAME": "Shannon",
        "STATE_CONTACT_LAST_NAME": "Briggs",
        "STATE_CONTACT_AGENCY_NAME": "\"Department of Environment",
        "STATE_CONTACT_TEL_NUMBER": " Great Lakes",
        "STATE_CONTACT_URL": " and Energy (DEGLE)\"",
        "SOURCE_JOINKEY": "517-284-5526"
    },
    "MI000458": {
        "PRG_INT_CODE": "126588",
        "BEACH_NAME": "Jenks County Park",
        "BEACH_COUNTY": "HURON",
        "BEACH_STATE": "MI",
        "BEACH_TRIBE_CODE": "",
        "HISTORICAL_ID_FLAG": "N",
        "BEACH_LEN_IN_MI": "0.160313768",
        "BEACH_LATEST_BEACH_YEAR": "2023",
        "BEACH_ACCESS": "Public",
        "OWNER_ACCESS": "Public",
        "DORMANT_STATUS": "",
        "START_LATITUDE_MEASURE": "44.0243",
        "START_LONGITUDE_MEASURE": "-83.0406",
        "END_LATITUDE_MEASURE": "44.02",
        "END_LONGITUDE_MEASURE": "-83.0418",
        "SOURCE_MAP_SCALE": "",
        "H_REREFENCE_DATUM_NAME": "NAD83",
        "STATE_CONTACT_FIRST_NAME": "Shannon",
        "STATE_CONTACT_LAST_NAME": "Briggs",
        "STATE_CONTACT_AGENCY_NAME": "\"Department of Environment",
        "STATE_CONTACT_TEL_NUMBER": " Great Lakes",
        "STATE_CONTACT_URL": " and Energy (DEGLE)\"",
        "SOURCE_JOINKEY": "517-284-5526"
    },
    "MI000459": {
        "PRG_INT_CODE": "126589",
        "BEACH_NAME": "McGraw County Park",
        "BEACH_COUNTY": "HURON",
        "BEACH_STATE": "MI",
        "BEACH_TRIBE_CODE": "",
        "HISTORICAL_ID_FLAG": "N",
        "BEACH_LEN_IN_MI": "0.097555277",
        "BEACH_LATEST_BEACH_YEAR": "2023",
        "BEACH_ACCESS": "Public",
        "OWNER_ACCESS": "Public",
        "DORMANT_STATUS": "",
        "START_LATITUDE_MEASURE": "44.0025",
        "START_LONGITUDE_MEASURE": "-83.1024",
        "END_LATITUDE_MEASURE": "44",
        "END_LONGITUDE_MEASURE": "-83.1044",
        "SOURCE_MAP_SCALE": "",
        "H_REREFENCE_DATUM_NAME": "NAD83",
        "STATE_CONTACT_FIRST_NAME": "Shannon",
        "STATE_CONTACT_LAST_NAME": "Briggs",
        "STATE_CONTACT_AGENCY_NAME": "\"Department of Environment",
        "STATE_CONTACT_TEL_NUMBER": " Great Lakes",
        "STATE_CONTACT_URL": " and Energy (DEGLE)\"",
        "SOURCE_JOINKEY": "517-284-5526"
    },
    "MI000460": {
        "PRG_INT_CODE": "126590",
        "BEACH_NAME": "Oak Beach County Park",
        "BEACH_COUNTY": "HURON",
        "BEACH_STATE": "MI",
        "BEACH_TRIBE_CODE": "",
        "HISTORICAL_ID_FLAG": "N",
        "BEACH_LEN_IN_MI": "0.141051261",
        "BEACH_LATEST_BEACH_YEAR": "2023",
        "BEACH_ACCESS": "Public",
        "OWNER_ACCESS": "Public",
        "DORMANT_STATUS": "",
        "START_LATITUDE_MEASURE": "43.9975",
        "START_LONGITUDE_MEASURE": "-83.1266",
        "END_LATITUDE_MEASURE": "44",
        "END_LONGITUDE_MEASURE": "-83.1288",
        "SOURCE_MAP_SCALE": "",
        "H_REREFENCE_DATUM_NAME": "NAD83",
        "STATE_CONTACT_FIRST_NAME": "Shannon",
        "STATE_CONTACT_LAST_NAME": "Briggs",
        "STATE_CONTACT_AGENCY_NAME": "\"Department of Environment",
        "STATE_CONTACT_TEL_NUMBER": " Great Lakes",
        "STATE_CONTACT_URL": " and Energy (DEGLE)\"",
        "SOURCE_JOINKEY": "517-284-5526"
    },
    "MI000461": {
        "PRG_INT_CODE": "126591",
        "BEACH_NAME": "Philp County Park",
        "BEACH_COUNTY": "HURON",
        "BEACH_STATE": "MI",
        "BEACH_TRIBE_CODE": "",
        "HISTORICAL_ID_FLAG": "N",
        "BEACH_LEN_IN_MI": "0.059030263",
        "BEACH_LATEST_BEACH_YEAR": "2023",
        "BEACH_ACCESS": "Public",
        "OWNER_ACCESS": "Public",
        "DORMANT_STATUS": "",
        "START_LATITUDE_MEASURE": "43.9827",
        "START_LONGITUDE_MEASURE": "-83.206",
        "END_LATITUDE_MEASURE": "43.98",
        "END_LONGITUDE_MEASURE": "-83.2071",
        "SOURCE_MAP_SCALE": "",
        "H_REREFENCE_DATUM_NAME": "NAD83",
        "STATE_CONTACT_FIRST_NAME": "Shannon",
        "STATE_CONTACT_LAST_NAME": "Briggs",
        "STATE_CONTACT_AGENCY_NAME": "\"Department of Environment",
        "STATE_CONTACT_TEL_NUMBER": " Great Lakes",
        "STATE_CONTACT_URL": " and Energy (DEGLE)\"",
        "SOURCE_JOINKEY": "517-284-5526"
    },
    "MI000462": {
        "PRG_INT_CODE": "126592",
        "BEACH_NAME": "Port Crescent State Park - Camping Area",
        "BEACH_COUNTY": "HURON",
        "BEACH_STATE": "MI",
        "BEACH_TRIBE_CODE": "",
        "HISTORICAL_ID_FLAG": "N",
        "BEACH_LEN_IN_MI": "0.763043824",
        "BEACH_LATEST_BEACH_YEAR": "2023",
        "BEACH_ACCESS": "Public",
        "OWNER_ACCESS": "Public",
        "DORMANT_STATUS": "",
        "START_LATITUDE_MEASURE": "44.0059",
        "START_LONGITUDE_MEASURE": "-83.06",
        "END_LATITUDE_MEASURE": "44.01",
        "END_LONGITUDE_MEASURE": "-83.049",
        "SOURCE_MAP_SCALE": "",
        "H_REREFENCE_DATUM_NAME": "NAD83",
        "STATE_CONTACT_FIRST_NAME": "Shannon",
        "STATE_CONTACT_LAST_NAME": "Briggs",
        "STATE_CONTACT_AGENCY_NAME": "\"Department of Environment",
        "STATE_CONTACT_TEL_NUMBER": " Great Lakes",
        "STATE_CONTACT_URL": " and Energy (DEGLE)\"",
        "SOURCE_JOINKEY": "517-284-5526"
    },
    "MI000463": {
        "PRG_INT_CODE": "126593",
        "BEACH_NAME": "Port Crescent State Park - Day Use",
        "BEACH_COUNTY": "HURON",
        "BEACH_STATE": "MI",
        "BEACH_TRIBE_CODE": "",
        "HISTORICAL_ID_FLAG": "N",
        "BEACH_LEN_IN_MI": "1.654711484",
        "BEACH_LATEST_BEACH_YEAR": "2023",
        "BEACH_ACCESS": "Public",
        "OWNER_ACCESS": "Public",
        "DORMANT_STATUS": "",
        "START_LATITUDE_MEASURE": "44.0015",
        "START_LONGITUDE_MEASURE": "-83.0921",
        "END_LATITUDE_MEASURE": "44.01",
        "END_LONGITUDE_MEASURE": "-83.0601",
        "SOURCE_MAP_SCALE": "",
        "H_REREFENCE_DATUM_NAME": "NAD83",
        "STATE_CONTACT_FIRST_NAME": "Shannon",
        "STATE_CONTACT_LAST_NAME": "Briggs",
        "STATE_CONTACT_AGENCY_NAME": "\"Department of Environment",
        "STATE_CONTACT_TEL_NUMBER": " Great Lakes",
        "STATE_CONTACT_URL": " and Energy (DEGLE)\"",
        "SOURCE_JOINKEY": "517-284-5526"
    },
    "MI000464": {
        "PRG_INT_CODE": "126594",
        "BEACH_NAME": "Sleeper State Park",
        "BEACH_COUNTY": "HURON",
        "BEACH_STATE": "MI",
        "BEACH_TRIBE_CODE": "",
        "HISTORICAL_ID_FLAG": "N",
        "BEACH_LEN_IN_MI": "0.257869045",
        "BEACH_LATEST_BEACH_YEAR": "2023",
        "BEACH_ACCESS": "Public",
        "OWNER_ACCESS": "Public",
        "DORMANT_STATUS": "",
        "START_LATITUDE_MEASURE": "43.9821",
        "START_LONGITUDE_MEASURE": "-83.2107",
        "END_LATITUDE_MEASURE": "43.98",
        "END_LONGITUDE_MEASURE": "-83.2157",
        "SOURCE_MAP_SCALE": "",
        "H_REREFENCE_DATUM_NAME": "NAD83",
        "STATE_CONTACT_FIRST_NAME": "Shannon",
        "STATE_CONTACT_LAST_NAME": "Briggs",
        "STATE_CONTACT_AGENCY_NAME": "\"Department of Environment",
        "STATE_CONTACT_TEL_NUMBER": " Great Lakes",
        "STATE_CONTACT_URL": " and Energy (DEGLE)\"",
        "SOURCE_JOINKEY": "517-284-5526"
    },
    "MI000465": {
        "PRG_INT_CODE": "126595",
        "BEACH_NAME": "Wagener County Park",
        "BEACH_COUNTY": "HURON",
        "BEACH_STATE": "MI",
        "BEACH_TRIBE_CODE": "",
        "HISTORICAL_ID_FLAG": "N",
        "BEACH_LEN_IN_MI": "0.13048795",
        "BEACH_LATEST_BEACH_YEAR": "2023",
        "BEACH_ACCESS": "Public",
        "OWNER_ACCESS": "Public",
        "DORMANT_STATUS": "",
        "START_LATITUDE_MEASURE": "43.7717",
        "START_LONGITUDE_MEASURE": "-82.6134",
        "END_LATITUDE_MEASURE": "43.77",
        "END_LONGITUDE_MEASURE": "-82.6136",
        "SOURCE_MAP_SCALE": "",
        "H_REREFENCE_DATUM_NAME": "NAD83",
        "STATE_CONTACT_FIRST_NAME": "Shannon",
        "STATE_CONTACT_LAST_NAME": "Briggs",
        "STATE_CONTACT_AGENCY_NAME": "\"Department of Environment",
        "STATE_CONTACT_TEL_NUMBER": " Great Lakes",
        "STATE_CONTACT_URL": " and Energy (DEGLE)\"",
        "SOURCE_JOINKEY": "517-284-5526"
    },