{
    "RI004143": {
        "PRG_INT_CODE": "27183",
        "BEACH_NAME": "Holiday Acres Campground",
        "BEACH_COUNTY": "PROVIDENCE",
        "BEACH_STATE": "RI",
        "BEACH_TRIBE_CODE": "",
        "HISTORICAL_ID_FLAG": "Y",
        "BEACH_LEN_IN_MI": "0.03",
        "BEACH_LATEST_BEACH_YEAR": "2023",
        "BEACH_ACCESS": "Private",
        "OWNER_ACCESS": "Private",
        "DORMANT_STATUS": "",
        "START_LATITUDE_MEASURE": "41.882477",
        "START_LONGITUDE_MEASURE": "-71.624322",
        "END_LATITUDE_MEASURE": "41.882477",
        "END_LONGITUDE_MEASURE": "-71.624322",
        "SOURCE_MAP_SCALE": "100000",
        "H_REREFENCE_DATUM_NAME": "NAD83",
        "STATE_CONTACT_FIRST_NAME": "",
        "STATE_CONTACT_LAST_NAME": "",
        "STATE_CONTACT_AGENCY_NAME": "",
        "STATE_CONTACT_TEL_NUMBER": "",
        "STATE_CONTACT_URL": "",
        "SOURCE_JOINKEY": "{127723E4-AABB-26FF-E063-42DE43865AE3}"
    },
    "RI011366": {
        "PRG_INT_CODE": "27238",
        "BEACH_NAME": "Camp Canonicus",
        "BEACH_COUNTY": "KENT",
        "BEACH_STATE": "RI",
        "BEACH_TRIBE_CODE": "",
        "HISTORICAL_ID_FLAG": "Y",
        "BEACH_LEN_IN_MI": "0.02",
        "BEACH_LATEST_BEACH_YEAR": "2023",
        "BEACH_ACCESS": "Private",
        "OWNER_ACCESS": "Private",
        "DORMANT_STATUS": "",
        "START_LATITUDE_MEASURE": "41.53983",
        "START_LONGITUDE_MEASURE": "-71.52",
        "END_LATITUDE_MEASURE": "41.53983",
        "END_LONGITUDE_MEASURE": "-71.52",
        "SOURCE_MAP_SCALE": "100000",
        "H_REREFENCE_DATUM_NAME": "NAD83",
        "STATE_CONTACT_FIRST_NAME": "",
        "STATE_CONTACT_LAST_NAME": "",
        "STATE_CONTACT_AGENCY_NAME": "",
        "STATE_CONTACT_TEL_NUMBER": "",
        "STATE_CONTACT_URL": "",
        "SOURCE_JOINKEY": "{127723E4-ACA7-26FF-E063-42DE43865AE3}"
    },
    "RI011908": {
        "PRG_INT_CODE": "27237",
        "BEACH_NAME": "Capt Roger Wheeler",
        "BEACH_COUNTY": "WASHINGTON",
        "BEACH_STATE": "RI",
        "BEACH_TRIBE_CODE": "",
        "HISTORICAL_ID_FLAG": "N",
        "BEACH_LEN_IN_MI": "0.33",
        "BEACH_LATEST_BEACH_YEAR": "2023",
        "BEACH_ACCESS": "Public",
        "OWNER_ACCESS": "Public",
        "DORMANT_STATUS": "",
        "START_LATITUDE_MEASURE": "41.373539",
        "START_LONGITUDE_MEASURE": "-71.502373",
        "END_LATITUDE_MEASURE": "41.370884",
        "END_LONGITUDE_MEASURE": "-71.497453",
        "SOURCE_MAP_SCALE": "100000",
        "H_REREFENCE_DATUM_NAME": "NAD83",
        "STATE_CONTACT_FIRST_NAME": "",
        "STATE_CONTACT_LAST_NAME": "",
        "STATE_CONTACT_AGENCY_NAME": "",
        "STATE_CONTACT_TEL_NUMBER": "",
        "STATE_CONTACT_URL": "",
        "SOURCE_JOINKEY": "{127723E4-D721-26FF-E063-42DE43865AE3}"
    },
    "RI027051": {
        "PRG_INT_CODE": "27236",
        "BEACH_NAME": "Matunuck Town Beach",
        "BEACH_COUNTY": "WASHINGTON",
        "BEACH_STATE": "RI",
        "BEACH_TRIBE_CODE": "",
        "HISTORICAL_ID_FLAG": "N",
        "BEACH_LEN_IN_MI": "0.16",
        "BEACH_LATEST_BEACH_YEAR": "2023",
        "BEACH_ACCESS": "Public",
        "OWNER_ACCESS": "Public",
        "DORMANT_STATUS": "",
        "START_LATITUDE_MEASURE": "41.374776",
        "START_LONGITUDE_MEASURE": "-71.551752",
        "END_LATITUDE_MEASURE": "41.374789",
        "END_LONGITUDE_MEASURE": "-71.548763",
        "SOURCE_MAP_SCALE": "100000",
        "H_REREFENCE_DATUM_NAME": "NAD83",
        "STATE_CONTACT_FIRST_NAME": "",
        "STATE_CONTACT_LAST_NAME": "",
        "STATE_CONTACT_AGENCY_NAME": "",
        "STATE_CONTACT_TEL_NUMBER": "",
        "STATE_CONTACT_URL": "",
        "SOURCE_JOINKEY": "{127723E4-D74F-26FF-E063-42DE43865AE3}"
    },
    "RI040333": {
        "PRG_INT_CODE": "27201",
        "BEACH_NAME": "North Kingstown Town Beach",
        "BEACH_COUNTY": "WASHINGTON",
        "BEACH_STATE": "RI",
        "BEACH_TRIBE_CODE": "",
        "HISTORICAL_ID_FLAG": "N",
        "BEACH_LEN_IN_MI": "0.32",
        "BEACH_LATEST_BEACH_YEAR": "2023",
        "BEACH_ACCESS": "Public",
        "OWNER_ACCESS": "Public",
        "DORMANT_STATUS": "",
        "START_LATITUDE_MEASURE": "41.567896",
        "START_LONGITUDE_MEASURE": "-71.4436",
        "END_LATITUDE_MEASURE": "41.563675",
        "END_LONGITUDE_MEASURE": "-71.43887",
        "SOURCE_MAP_SCALE": "100000",
        "H_REREFENCE_DATUM_NAME": "NAD83",
        "STATE_CONTACT_FIRST_NAME": "",
        "STATE_CONTACT_LAST_NAME": "",
        "STATE_CONTACT_AGENCY_NAME": "",
        "STATE_CONTACT_TEL_NUMBER": "",
        "STATE_CONTACT_URL": "",
        "SOURCE_JOINKEY": "{127723E4-D751-26FF-E063-42DE43865AE3}"
    },
    "RI050828": {
        "PRG_INT_CODE": "27224",
        "BEACH_NAME": "Goosewing Beach",
        "BEACH_COUNTY": "NEWPORT",
        "BEACH_STATE": "RI",
        "BEACH_TRIBE_CODE": "",
        "HISTORICAL_ID_FLAG": "N",
        "BEACH_LEN_IN_MI": "0.72",
        "BEACH_LATEST_BEACH_YEAR": "2023",
        "BEACH_ACCESS": "Public",
        "OWNER_ACCESS": "Public",
        "DORMANT_STATUS": "",
        "START_LATITUDE_MEASURE": "41.495295",
        "START_LONGITUDE_MEASURE": "-71.134122",
        "END_LATITUDE_MEASURE": "41.49746",
        "END_LONGITUDE_MEASURE": "-71.120599",
        "SOURCE_MAP_SCALE": "100000",
        "H_REREFENCE_DATUM_NAME": "NAD83",
        "STATE_CONTACT_FIRST_NAME": "",
        "STATE_CONTACT_LAST_NAME": "",
        "STATE_CONTACT_AGENCY_NAME": "",
        "STATE_CONTACT_TEL_NUMBER": "",
        "STATE_CONTACT_URL": "",
        "SOURCE_JOINKEY": "{127723E4-D753-26FF-E063-42DE43865AE3}"
    },
    "RI058715": {
        "PRG_INT_CODE": "27154",
        "BEACH_NAME": "Camp Hoffman",
        "BEACH_COUNTY": "WASHINGTON",
        "BEACH_STATE": "RI",
        "BEACH_TRIBE_CODE": "",
        "HISTORICAL_ID_FLAG": "Y",
        "BEACH_LEN_IN_MI": "0.01",
        "BEACH_LATEST_BEACH_YEAR": "2023",
        "BEACH_ACCESS": "Private",
        "OWNER_ACCESS": "Private",
        "DORMANT_STATUS": "",
        "START_LATITUDE_MEASURE": "41.47158",
        "START_LONGITUDE_MEASURE": "-71.5583",
        "END_LATITUDE_MEASURE": "41.47158",
        "END_LONGITUDE_MEASURE": "-71.5583",
        "SOURCE_MAP_SCALE": "100000",
        "H_REREFENCE_DATUM_NAME": "NAD83",
        "STATE_CONTACT_FIRST_NAME": "",
        "STATE_CONTACT_LAST_NAME": "",
        "STATE_CONTACT_AGENCY_NAME": "",
        "STATE_CONTACT_TEL_NUMBER": "",
        "STATE_CONTACT_URL": "",
        "SOURCE_JOINKEY": "{127723E4-A975-26FF-E063-42DE43865AE3}"
    },
    "RI065964": {
        "PRG_INT_CODE": "7402",
        "BEACH_NAME": "Yawgoog Scout Reservation",
        "BEACH_COUNTY": "WASHINGTON",
        "BEACH_STATE": "RI",
        "BEACH_TRIBE_CODE": "",
        "HISTORICAL_ID_FLAG": "Y",
        "BEACH_LEN_IN_MI": "0.09",
        "BEACH_LATEST_BEACH_YEAR": "2023",
        "BEACH_ACCESS": "Private",
        "OWNER_ACCESS": "Private",
        "DORMANT_STATUS": "",
        "START_LATITUDE_MEASURE": "41.52332",
        "START_LONGITUDE_MEASURE": "-71.7808",
        "END_LATITUDE_MEASURE": "41.52332",
        "END_LONGITUDE_MEASURE": "-71.7808",
        "SOURCE_MAP_SCALE": "100000",
        "H_REREFENCE_DATUM_NAME": "NAD83",
        "STATE_CONTACT_FIRST_NAME": "",
        "STATE_CONTACT_LAST_NAME": "",
        "STATE_CONTACT_AGENCY_NAME": "",
        "STATE_CONTACT_TEL_NUMBER": "",
        "STATE_CONTACT_URL": "",
        "SOURCE_JOINKEY": "{127723E4-A1FF-26FF-E063-42DE43865AE3}"
    },
    "RI076642": {
        "PRG_INT_CODE": "27181",
        "BEACH_NAME": "Governor Notte Park Beach",
        "BEACH_COUNTY": "PROVIDENCE",
        "BEACH_STATE": "RI",
        "BEACH_TRIBE_CODE": "",
        "HISTORICAL_ID_FLAG": "Y",
        "BEACH_LEN_IN_MI": "0.04",
        "BEACH_LATEST_BEACH_YEAR": "2023",
        "BEACH_ACCESS": "Public",
        "OWNER_ACCESS": "Public",
        "DORMANT_STATUS": "",
        "START_LATITUDE_MEASURE": "41.872025",
        "START_LONGITUDE_MEASURE": "-71.463188",
        "END_LATITUDE_MEASURE": "41.872035",
        "END_LONGITUDE_MEASURE": "-71.463185",
        "SOURCE_MAP_SCALE": "100000",
        "H_REREFENCE_DATUM_NAME": "NAD83",
        "STATE_CONTACT_FIRST_NAME": "",
        "STATE_CONTACT_LAST_NAME": "",
        "STATE_CONTACT_AGENCY_NAME": "",
        "STATE_CONTACT_TEL_NUMBER": "",
        "STATE_CONTACT_URL": "",
        "SOURCE_JOINKEY": "{127723E4-AD9D-26FF-E063-42DE43865AE3}"
    },
    "RI104171": {
        "PRG_INT_CODE": "130038",
        "BEACH_NAME": "Green Hill Beach",
        "BEACH_COUNTY": "WASHINGTON",
        "BEACH_STATE": "RI",
        "BEACH_TRIBE_CODE": "",
        "HISTORICAL_ID_FLAG": "N",
        "BEACH_LEN_IN_MI": "0.14",
        "BEACH_LATEST_BEACH_YEAR": "2023",
        "BEACH_ACCESS": "Private",
        "OWNER_ACCESS": "Private",
        "DORMANT_STATUS": "",
        "START_LATITUDE_MEASURE": "41.364858",
        "START_LONGITUDE_MEASURE": "-71.60016",
        "END_LATITUDE_MEASURE": "41.364858",
        "END_LONGITUDE_MEASURE": "-71.600074",
        "SOURCE_MAP_SCALE": "100000",
        "H_REREFENCE_DATUM_NAME": "NAD83",
        "STATE_CONTACT_FIRST_NAME": "",
        "STATE_CONTACT_LAST_NAME": "",
        "STATE_CONTACT_AGENCY_NAME": "",
        "STATE_CONTACT_TEL_NUMBER": "",
        "STATE_CONTACT_URL": "",
        "SOURCE_JOINKEY": "{127723E4-D755-26FF-E063-42DE43865AE3}"
    },
    "RI132346": {
        "PRG_INT_CODE": "27191",
        "BEACH_NAME": "Mackerel Cove",
        "BEACH_COUNTY": "NEWPORT",
        "BEACH_STATE": "RI",
        "BEACH_TRIBE_CODE": "",
        "HISTORICAL_ID_FLAG": "N",
        "BEACH_LEN_IN_MI": "0.28",
        "BEACH_LATEST_BEACH_YEAR": "2023",
        "BEACH_ACCESS": "Public",
        "OWNER_ACCESS": "Public",
        "DORMANT_STATUS": "",
        "START_LATITUDE_MEASURE": "41.4886",
        "START_LONGITUDE_MEASURE": "-71.3811",
        "END_LATITUDE_MEASURE": "41.486529",
        "END_LONGITUDE_MEASURE": "-71.386409",
        "SOURCE_MAP_SCALE": "100000",
        "H_REREFENCE_DATUM_NAME": "NAD83",
        "STATE_CONTACT_FIRST_NAME": "",
        "STATE_CONTACT_LAST_NAME": "",
        "STATE_CONTACT_AGENCY_NAME": "",
        "STATE_CONTACT_TEL_NUMBER": "",
        "STATE_CONTACT_URL": "",
        "SOURCE_JOINKEY": "{127723E4-D757-26FF-E063-42DE43865AE3}"
    },
    "RI139907": {
        "PRG_INT_CODE": "27134",
        "BEACH_NAME": "Ballards Inn",
        "BEACH_COUNTY": "WASHINGTON",
        "BEACH_STATE": "RI",
        "BEACH_TRIBE_CODE": "",
        "HISTORICAL_ID_FLAG": "N",
        "BEACH_LEN_IN_MI": "0.28",
        "BEACH_LATEST_BEACH_YEAR": "2023",
        "BEACH_ACCESS": "Private",
        "OWNER_ACCESS": "Public",
        "DORMANT_STATUS": "",
        "START_LATITUDE_MEASURE": "41.174531",
        "START_LONGITUDE_MEASURE": "-71.55433",
        "END_LATITUDE_MEASURE": "41.170538",
        "END_LONGITUDE_MEASURE": "-71.553401",
        "SOURCE_MAP_SCALE": "100000",
        "H_REREFENCE_DATUM_NAME": "NAD83",
        "STATE_CONTACT_FIRST_NAME": "",
        "STATE_CONTACT_LAST_NAME": "",
        "STATE_CONTACT_AGENCY_NAME": "",
        "STATE_CONTACT_TEL_NUMBER": "",
        "STATE_CONTACT_URL": "",
        "SOURCE_JOINKEY": "{127723E4-D759-26FF-E063-42DE43865AE3}"
    },
    "RI150210": {
        "PRG_INT_CODE": "27256",
        "BEACH_NAME": "Roy Carpenter's Beach",
        "BEACH_COUNTY": "WASHINGTON",
        "BEACH_STATE": "RI",
        "BEACH_TRIBE_CODE": "",
        "HISTORICAL_ID_FLAG": "N",
        "BEACH_LEN_IN_MI": "0.27",
        "BEACH_LATEST_BEACH_YEAR": "2023",
        "BEACH_ACCESS": "Public",
        "OWNER_ACCESS": "Public",
        "DORMANT_STATUS": "",
        "START_LATITUDE_MEASURE": "41.373012",
        "START_LONGITUDE_MEASURE": "-71.560621",
        "END_LATITUDE_MEASURE": "41.37423",
        "END_LONGITUDE_MEASURE": "-71.555365",
        "SOURCE_MAP_SCALE": "100000",
        "H_REREFENCE_DATUM_NAME": "NAD83",
        "STATE_CONTACT_FIRST_NAME": "",
        "STATE_CONTACT_LAST_NAME": "",
        "STATE_CONTACT_AGENCY_NAME": "",
        "STATE_CONTACT_TEL_NUMBER": "",
        "STATE_CONTACT_URL": "",
        "SOURCE_JOINKEY": "{127723E4-D78F-26FF-E063-42DE43865AE3}"
    },
    "RI150797": {
        "PRG_INT_CODE": "27233",
        "BEACH_NAME": "World War II Memorial State Park Beach",
        "BEACH_COUNTY": "PROVIDENCE",
        "BEACH_STATE": "RI",
        "BEACH_TRIBE_CODE": "",
        "HISTORICAL_ID_FLAG": "Y",
        "BEACH_LEN_IN_MI": "0.05",
        "BEACH_LATEST_BEACH_YEAR": "2023",
        "BEACH_ACCESS": "Public",
        "OWNER_ACCESS": "Public",
        "DORMANT_STATUS": "",
        "START_LATITUDE_MEASURE": "42.01028",
        "START_LONGITUDE_MEASURE": "-71.51",
        "END_LATITUDE_MEASURE": "42.01028",
        "END_LONGITUDE_MEASURE": "-71.51",
        "SOURCE_MAP_SCALE": "100000",
        "H_REREFENCE_DATUM_NAME": "NAD83",
        "STATE_CONTACT_FIRST_NAME": "",
        "STATE_CONTACT_LAST_NAME": "",
        "STATE_CONTACT_AGENCY_NAME": "",
        "STATE_CONTACT_TEL_NUMBER": "",
        "STATE_CONTACT_URL": "",
        "SOURCE_JOINKEY": "{127723E4-A977-26FF-E063-42DE43865AE3}"
    },
    "RI152209": {
        "PRG_INT_CODE": "27153",
        "BEACH_NAME": "Camp Davis",
        "BEACH_COUNTY": "WASHINGTON",
        "BEACH_STATE": "RI",
        "BEACH_TRIBE_CODE": "",
        "HISTORICAL_ID_FLAG": "Y",
        "BEACH_LEN_IN_MI": "0.01",
        "BEACH_LATEST_BEACH_YEAR": "2023",
        "BEACH_ACCESS": "Private",
        "OWNER_ACCESS": "Private",
        "DORMANT_STATUS": "",
        "START_LATITUDE_MEASURE": "41.40171",
        "START_LONGITUDE_MEASURE": "-71.6649",
        "END_LATITUDE_MEASURE": "41.40171",
        "END_LONGITUDE_MEASURE": "-71.6649",
        "SOURCE_MAP_SCALE": "100000",
        "H_REREFENCE_DATUM_NAME": "NAD83",
        "STATE_CONTACT_FIRST_NAME": "",
        "STATE_CONTACT_LAST_NAME": "",
        "STATE_CONTACT_AGENCY_NAME": "",
        "STATE_CONTACT_TEL_NUMBER": "",
        "STATE_CONTACT_URL": "",
        "SOURCE_JOINKEY": "{127723E4-A203-26FF-E063-42DE43865AE3}"
    },
    "RI159496": {
        "PRG_INT_CODE": "27144",
        "BEACH_NAME": "Briggs Beach",
        "BEACH_COUNTY": "NEWPORT",
        "BEACH_STATE": "RI",
        "BEACH_TRIBE_CODE": "",
        "HISTORICAL_ID_FLAG": "N",
        "BEACH_LEN_IN_MI": "1.01",
        "BEACH_LATEST_BEACH_YEAR": "2023",
        "BEACH_ACCESS": "Private",
        "OWNER_ACCESS": "Private",
        "DORMANT_STATUS": "",
        "START_LATITUDE_MEASURE": "41.469495",
        "START_LONGITUDE_MEASURE": "-71.169954",
        "END_LATITUDE_MEASURE": "41.476861",
        "END_LONGITUDE_MEASURE": "-71.15447",
        "SOURCE_MAP_SCALE": "100000",
        "H_REREFENCE_DATUM_NAME": "NAD83",
        "STATE_CONTACT_FIRST_NAME": "",
        "STATE_CONTACT_LAST_NAME": "",
        "STATE_CONTACT_AGENCY_NAME": "",
        "STATE_CONTACT_TEL_NUMBER": "",
        "STATE_CONTACT_URL": "",
        "SOURCE_JOINKEY": "{127723E4-D791-26FF-E063-42DE43865AE3}"
    },
    "RI162580": {
        "PRG_INT_CODE": "27163",
        "BEACH_NAME": "Conimicut Point Beach",
        "BEACH_COUNTY": "KENT",
        "BEACH_STATE": "RI",
        "BEACH_TRIBE_CODE": "",
        "HISTORICAL_ID_FLAG": "N",
        "BEACH_LEN_IN_MI": "0.17",
        "BEACH_LATEST_BEACH_YEAR": "2023",
        "BEACH_ACCESS": "Public",
        "OWNER_ACCESS": "Public",
        "DORMANT_STATUS": "",
        "START_LATITUDE_MEASURE": "41.7164",
        "START_LONGITUDE_MEASURE": "-71.3584",
        "END_LATITUDE_MEASURE": "41.715054",
        "END_LONGITUDE_MEASURE": "-71.361274",
        "SOURCE_MAP_SCALE": "100000",
        "H_REREFENCE_DATUM_NAME": "NAD83",
        "STATE_CONTACT_FIRST_NAME": "",
        "STATE_CONTACT_LAST_NAME": "",
        "STATE_CONTACT_AGENCY_NAME": "",
        "STATE_CONTACT_TEL_NUMBER": "",
        "STATE_CONTACT_URL": "",
        "SOURCE_JOINKEY": "{127723E4-D793-26FF-E063-42DE43865AE3}"
    },
    "RI162918": {
        "PRG_INT_CODE": "27208",
        "BEACH_NAME": "Sachuest Beach",
        "BEACH_COUNTY": "NEWPORT",
        "BEACH_STATE": "RI",
        "BEACH_TRIBE_CODE": "",
        "HISTORICAL_ID_FLAG": "N",
        "BEACH_LEN_IN_MI": "1.35",
        "BEACH_LATEST_BEACH_YEAR": "2023",
        "BEACH_ACCESS": "Public",
        "OWNER_ACCESS": "Public",
        "DORMANT_STATUS": "",
        "START_LATITUDE_MEASURE": "41.488383",
        "START_LONGITUDE_MEASURE": "-71.267742",
        "END_LATITUDE_MEASURE": "41.48071",
        "END_LONGITUDE_MEASURE": "-71.245387",
        "SOURCE_MAP_SCALE": "100000",
        "H_REREFENCE_DATUM_NAME": "NAD83",
        "STATE_CONTACT_FIRST_NAME": "",
        "STATE_CONTACT_LAST_NAME": "",
        "STATE_CONTACT_AGENCY_NAME": "",
        "STATE_CONTACT_TEL_NUMBER": "",
        "STATE_CONTACT_URL": "",
        "SOURCE_JOINKEY": "{127723E4-D795-26FF-E063-42DE43865AE3}"
    },
    "RI180657": {
        "PRG_INT_CODE": "27241",
        "BEACH_NAME": "Camp Shepard",
        "BEACH_COUNTY": "PROVIDENCE",
        "BEACH_STATE": "RI",
        "BEACH_TRIBE_CODE": "",
        "HISTORICAL_ID_FLAG": "Y",
        "BEACH_LEN_IN_MI": "0.01",
        "BEACH_LATEST_BEACH_YEAR": "2023",
        "BEACH_ACCESS": "Private",
        "OWNER_ACCESS": "Private",
        "DORMANT_STATUS": "",
        "START_LATITUDE_MEASURE": "41.891796",
        "START_LONGITUDE_MEASURE": "-71.583324",
        "END_LATITUDE_MEASURE": "41.891796",
        "END_LONGITUDE_MEASURE": "-71.583324",
        "SOURCE_MAP_SCALE": "100000",
        "H_REREFENCE_DATUM_NAME": "NAD83",
        "STATE_CONTACT_FIRST_NAME": "",
        "STATE_CONTACT_LAST_NAME": "",
        "STATE_CONTACT_AGENCY_NAME": "",
        "STATE_CONTACT_TEL_NUMBER": "",
        "STATE_CONTACT_URL": "",
        "SOURCE_JOINKEY": "{127723E4-A07F-26FF-E063-42DE43865AE3}"
    },
    "RI184319": {
        "PRG_INT_CODE": "27140",
        "BEACH_NAME": "Bonnet Shores Beach Club",
        "BEACH_COUNTY": "WASHINGTON",
        "BEACH_STATE": "RI",
        "BEACH_TRIBE_CODE": "",
        "HISTORICAL_ID_FLAG": "N",
        "BEACH_LEN_IN_MI": "0.28",
        "BEACH_LATEST_BEACH_YEAR": "2023",
        "BEACH_ACCESS": "Private",
        "OWNER_ACCESS": "Private",
        "DORMANT_STATUS": "",
        "START_LATITUDE_MEASURE": "41.471418",
        "START_LONGITUDE_MEASURE": "-71.429037",
        "END_LATITUDE_MEASURE": "41.472774",
        "END_LONGITUDE_MEASURE": "-71.424555",
        "SOURCE_MAP_SCALE": "100000",
        "H_REREFENCE_DATUM_NAME": "NAD83",
        "STATE_CONTACT_FIRST_NAME": "",
        "STATE_CONTACT_LAST_NAME": "",
        "STATE_CONTACT_AGENCY_NAME": "",
        "STATE_CONTACT_TEL_NUMBER": "",
        "STATE_CONTACT_URL": "",
        "SOURCE_JOINKEY": "{127723E4-D797-26FF-E063-42DE43865AE3}"
    },
    "RI191741": {
        "PRG_INT_CODE": "7431",
        "BEACH_NAME": "Westerly Town Beach-New",
        "BEACH_COUNTY": "WASHINGTON",
        "BEACH_STATE": "RI",
        "BEACH_TRIBE_CODE": "",
        "HISTORICAL_ID_FLAG": "N",
        "BEACH_LEN_IN_MI": "0.06",
        "BEACH_LATEST_BEACH_YEAR": "2023",
        "BEACH_ACCESS": "Public",
        "OWNER_ACCESS": "Public",
        "DORMANT_STATUS": "",
        "START_LATITUDE_MEASURE": "41.323946",
        "START_LONGITUDE_MEASURE": "-71.796229",
        "END_LATITUDE_MEASURE": "41.324146",
        "END_LONGITUDE_MEASURE": "-71.795186",
        "SOURCE_MAP_SCALE": "100000",
        "H_REREFENCE_DATUM_NAME": "NAD83",
        "STATE_CONTACT_FIRST_NAME": "",
        "STATE_CONTACT_LAST_NAME": "",
        "STATE_CONTACT_AGENCY_NAME": "",
        "STATE_CONTACT_TEL_NUMBER": "",
        "STATE_CONTACT_URL": "",
        "SOURCE_JOINKEY": "{127723E4-D7C7-26FF-E063-42DE43865AE3}"
    },
    "RI205142": {
        "PRG_INT_CODE": "27206",
        "BEACH_NAME": "Plum Beach",
        "BEACH_COUNTY": "WASHINGTON",
        "BEACH_STATE": "RI",
        "BEACH_TRIBE_CODE": "",
        "HISTORICAL_ID_FLAG": "N",
        "BEACH_LEN_IN_MI": "0.11",
        "BEACH_LATEST_BEACH_YEAR": "2023",
        "BEACH_ACCESS": "Private",
        "OWNER_ACCESS": "Private",
        "DORMANT_STATUS": "",
        "START_LATITUDE_MEASURE": "41.5275",
        "START_LONGITUDE_MEASURE": "-71.4169",
        "END_LATITUDE_MEASURE": "41.5291",
        "END_LONGITUDE_MEASURE": "-71.4157",
        "SOURCE_MAP_SCALE": "100000",
        "H_REREFENCE_DATUM_NAME": "NAD83",
        "STATE_CONTACT_FIRST_NAME": "",
        "STATE_CONTACT_LAST_NAME": "",
        "STATE_CONTACT_AGENCY_NAME": "",
        "STATE_CONTACT_TEL_NUMBER": "",
        "STATE_CONTACT_URL": "",
        "SOURCE_JOINKEY": "{127723E4-D7C9-26FF-E063-42DE43865AE3}"
    },
    "RI207590": {
        "PRG_INT_CODE": "27179",
        "BEACH_NAME": "Gooseberry Beach",
        "BEACH_COUNTY": "NEWPORT",
        "BEACH_STATE": "RI",
        "BEACH_TRIBE_CODE": "",
        "HISTORICAL_ID_FLAG": "N",
        "BEACH_LEN_IN_MI": "0.23",
        "BEACH_LATEST_BEACH_YEAR": "2023",
        "BEACH_ACCESS": "Private",
        "OWNER_ACCESS": "Public",
        "DORMANT_STATUS": "",
        "START_LATITUDE_MEASURE": "41.459136",
        "START_LONGITUDE_MEASURE": "-71.319187",
        "END_LATITUDE_MEASURE": "41.459888",
        "END_LONGITUDE_MEASURE": "-71.322684",
        "SOURCE_MAP_SCALE": "100000",
        "H_REREFENCE_DATUM_NAME": "NAD83",
        "STATE_CONTACT_FIRST_NAME": "",
        "STATE_CONTACT_LAST_NAME": "",
        "STATE_CONTACT_AGENCY_NAME": "",
        "STATE_CONTACT_TEL_NUMBER": "",
        "STATE_CONTACT_URL": "",
        "SOURCE_JOINKEY": "{127723E4-D7CB-26FF-E063-42DE43865AE3}"
    },
    "RI210641": {
        "PRG_INT_CODE": "151819",
        "BEACH_NAME": "Burlingame State Park Campground",
        "BEACH_COUNTY": "WASHINGTON",
        "BEACH_STATE": "RI",
        "BEACH_TRIBE_CODE": "",
        "HISTORICAL_ID_FLAG": "Y",
        "BEACH_LEN_IN_MI": "0.02",
        "BEACH_LATEST_BEACH_YEAR": "2023",
        "BEACH_ACCESS": "Public",
        "OWNER_ACCESS": "Private",
        "DORMANT_STATUS": "",
        "START_LATITUDE_MEASURE": "41.37817",
        "START_LONGITUDE_MEASURE": "-71.68989",
        "END_LATITUDE_MEASURE": "41.37817",
        "END_LONGITUDE_MEASURE": "-71.68989",
        "SOURCE_MAP_SCALE": "100000",
        "H_REREFENCE_DATUM_NAME": "NAD83",
        "STATE_CONTACT_FIRST_NAME": "",
        "STATE_CONTACT_LAST_NAME": "",
        "STATE_CONTACT_AGENCY_NAME": "",
        "STATE_CONTACT_TEL_NUMBER": "",
        "STATE_CONTACT_URL": "",
        "SOURCE_JOINKEY": "{127723E4-AD9F-26FF-E063-42DE43865AE3}"
    },
    "RI211686": {
        "PRG_INT_CODE": "27139",
        "BEACH_NAME": "Blue Shutters Beach",
        "BEACH_COUNTY": "WASHINGTON",
        "BEACH_STATE": "RI",
        "BEACH_TRIBE_CODE": "",
        "HISTORICAL_ID_FLAG": "N",
        "BEACH_LEN_IN_MI": "0.21",
        "BEACH_LATEST_BEACH_YEAR": "2023",
        "BEACH_ACCESS": "Private",
        "OWNER_ACCESS": "Private",
        "DORMANT_STATUS": "",
        "START_LATITUDE_MEASURE": "41.34192",
        "START_LONGITUDE_MEASURE": "-71.692789",
        "END_LATITUDE_MEASURE": "41.340561",
        "END_LONGITUDE_MEASURE": "-71.696285",
        "SOURCE_MAP_SCALE": "100000",
        "H_REREFENCE_DATUM_NAME": "NAD83",
        "STATE_CONTACT_FIRST_NAME": "",
        "STATE_CONTACT_LAST_NAME": "",
        "STATE_CONTACT_AGENCY_NAME": "",
        "STATE_CONTACT_TEL_NUMBER": "",
        "STATE_CONTACT_URL": "",
        "SOURCE_JOINKEY": "{127723E4-D7CD-26FF-E063-42DE43865AE3}"
    },
    "RI221078": {
        "PRG_INT_CODE": "162562",
        "BEACH_NAME": "Van Zandt Pier",
        "BEACH_COUNTY": "NEWPORT COUNTY",
        "BEACH_STATE": "RI",
        "BEACH_TRIBE_CODE": "",
        "HISTORICAL_ID_FLAG": "N",
        "BEACH_LEN_IN_MI": "0.03",
        "BEACH_LATEST_BEACH_YEAR": "2023",
        "BEACH_ACCESS": "Public",
        "OWNER_ACCESS": "Public",
        "DORMANT_STATUS": "",
        "START_LATITUDE_MEASURE": "41.4985",
        "START_LONGITUDE_MEASURE": "-71.3226",
        "END_LATITUDE_MEASURE": "41.4985",
        "END_LONGITUDE_MEASURE": "-71.3226",
        "SOURCE_MAP_SCALE": "100000",
        "H_REREFENCE_DATUM_NAME": "NAD83",
        "STATE_CONTACT_FIRST_NAME": "",
        "STATE_CONTACT_LAST_NAME": "",
        "STATE_CONTACT_AGENCY_NAME": "",
        "STATE_CONTACT_TEL_NUMBER": "",
        "STATE_CONTACT_URL": "",
        "SOURCE_JOINKEY": "{127723E4-D0FB-26FF-E063-42DE43865AE3}"
    },
    "RI245197": {
        "PRG_INT_CODE": "27135",
        "BEACH_NAME": "Barrington Town Beach",
        "BEACH_COUNTY": "BRISTOL",
        "BEACH_STATE": "RI",
        "BEACH_TRIBE_CODE": "",
        "HISTORICAL_ID_FLAG": "N",
        "BEACH_LEN_IN_MI": "0.21",
        "BEACH_LATEST_BEACH_YEAR": "2023",
        "BEACH_ACCESS": "Public",
        "OWNER_ACCESS": "Public",
        "DORMANT_STATUS": "",
        "START_LATITUDE_MEASURE": "41.7216",
        "START_LONGITUDE_MEASURE": "-71.3078",
        "END_LATITUDE_MEASURE": "41.723139",
        "END_LONGITUDE_MEASURE": "-71.31137",
        "SOURCE_MAP_SCALE": "100000",
        "H_REREFENCE_DATUM_NAME": "NAD83",
        "STATE_CONTACT_FIRST_NAME": "",
        "STATE_CONTACT_LAST_NAME": "",
        "STATE_CONTACT_AGENCY_NAME": "",
        "STATE_CONTACT_TEL_NUMBER": "",
        "STATE_CONTACT_URL": "",
        "SOURCE_JOINKEY": "{127723E4-D7CF-26FF-E063-42DE43865AE3}"
    },
    "RI276487": {
        "PRG_INT_CODE": "27204",
        "BEACH_NAME": "Peabody's Beach",
        "BEACH_COUNTY": "NEWPORT",
        "BEACH_STATE": "RI",
        "BEACH_TRIBE_CODE": "",
        "HISTORICAL_ID_FLAG": "N",
        "BEACH_LEN_IN_MI": "0.15",
        "BEACH_LATEST_BEACH_YEAR": "2023",
        "BEACH_ACCESS": "Private",
        "OWNER_ACCESS": "Public",
        "DORMANT_STATUS": "",
        "START_LATITUDE_MEASURE": "41.494509",
        "START_LONGITUDE_MEASURE": "-71.246507",
        "END_LATITUDE_MEASURE": "41.492355",
        "END_LONGITUDE_MEASURE": "-71.247364",
        "SOURCE_MAP_SCALE": "100000",
        "H_REREFENCE_DATUM_NAME": "NAD83",
        "STATE_CONTACT_FIRST_NAME": "",
        "STATE_CONTACT_LAST_NAME": "",
        "STATE_CONTACT_AGENCY_NAME": "",
        "STATE_CONTACT_TEL_NUMBER": "",
        "STATE_CONTACT_URL": "",
        "SOURCE_JOINKEY": "{127723E4-D7FF-26FF-E063-42DE43865AE3}"
    },
    "RI288309": {
        "PRG_INT_CODE": "27159",
        "BEACH_NAME": "Charlestown Breachway",
        "BEACH_COUNTY": "WASHINGTON",
        "BEACH_STATE": "RI",
        "BEACH_TRIBE_CODE": "",
        "HISTORICAL_ID_FLAG": "N",
        "BEACH_LEN_IN_MI": "0.42",
        "BEACH_LATEST_BEACH_YEAR": "2023",
        "BEACH_ACCESS": "Public",
        "OWNER_ACCESS": "Public",
        "DORMANT_STATUS": "",
        "START_LATITUDE_MEASURE": "41.356112",
        "START_LONGITUDE_MEASURE": "-71.638461",
        "END_LATITUDE_MEASURE": "41.359188",
        "END_LONGITUDE_MEASURE": "-71.631721",
        "SOURCE_MAP_SCALE": "100000",
        "H_REREFENCE_DATUM_NAME": "NAD83",
        "STATE_CONTACT_FIRST_NAME": "",
        "STATE_CONTACT_LAST_NAME": "",
        "STATE_CONTACT_AGENCY_NAME": "",
        "STATE_CONTACT_TEL_NUMBER": "",
        "STATE_CONTACT_URL": "",
        "SOURCE_JOINKEY": "{127723E4-D801-26FF-E063-42DE43865AE3}"
    },
    "RI299364": {
        "PRG_INT_CODE": "7218",
        "BEACH_NAME": "Weekapaug Fire District",
        "BEACH_COUNTY": "WASHINGTON",
        "BEACH_STATE": "RI",
        "BEACH_TRIBE_CODE": "",
        "HISTORICAL_ID_FLAG": "N",
        "BEACH_LEN_IN_MI": "1.91",
        "BEACH_LATEST_BEACH_YEAR": "2023",
        "BEACH_ACCESS": "Public",
        "OWNER_ACCESS": "Public",
        "DORMANT_STATUS": "",
        "START_LATITUDE_MEASURE": "41.328533",
        "START_LONGITUDE_MEASURE": "-71.762397",
        "END_LATITUDE_MEASURE": "41.331583",
        "END_LONGITUDE_MEASURE": "-71.718618",
        "SOURCE_MAP_SCALE": "100000",
        "H_REREFENCE_DATUM_NAME": "NAD83",
        "STATE_CONTACT_FIRST_NAME": "",
        "STATE_CONTACT_LAST_NAME": "",
        "STATE_CONTACT_AGENCY_NAME": "",
        "STATE_CONTACT_TEL_NUMBER": "",
        "STATE_CONTACT_URL": "",
        "SOURCE_JOINKEY": "{127723E4-D803-26FF-E063-42DE43865AE3}"
    },
    "RI304182": {
        "PRG_INT_CODE": "27234",
        "BEACH_NAME": "Camp Fuller Ymca Beach",
        "BEACH_COUNTY": "WASHINGTON",
        "BEACH_STATE": "RI",
        "BEACH_TRIBE_CODE": "",
        "HISTORICAL_ID_FLAG": "N",
        "BEACH_LEN_IN_MI": "0.25",
        "BEACH_LATEST_BEACH_YEAR": "2023",
        "BEACH_ACCESS": "Private",
        "OWNER_ACCESS": "Private",
        "DORMANT_STATUS": "",
        "START_LATITUDE_MEASURE": "41.407962",
        "START_LONGITUDE_MEASURE": "-71.510307",
        "END_LATITUDE_MEASURE": "41.408401",
        "END_LONGITUDE_MEASURE": "-71.508855",
        "SOURCE_MAP_SCALE": "100000",
        "H_REREFENCE_DATUM_NAME": "NAD83",
        "STATE_CONTACT_FIRST_NAME": "",
        "STATE_CONTACT_LAST_NAME": "",
        "STATE_CONTACT_AGENCY_NAME": "",
        "STATE_CONTACT_TEL_NUMBER": "",
        "STATE_CONTACT_URL": "",
        "SOURCE_JOINKEY": "{127723E4-D805-26FF-E063-42DE43865AE3}"
    },
    "RI304386": {
        "PRG_INT_CODE": "27189",
        "BEACH_NAME": "Lincoln Woods State Park Beach",
        "BEACH_COUNTY": "PROVIDENCE",
        "BEACH_STATE": "RI",
        "BEACH_TRIBE_CODE": "",
        "HISTORICAL_ID_FLAG": "Y",
        "BEACH_LEN_IN_MI": "0.15",
        "BEACH_LATEST_BEACH_YEAR": "2023",
        "BEACH_ACCESS": "Public",
        "OWNER_ACCESS": "Public",
        "DORMANT_STATUS": "",
        "START_LATITUDE_MEASURE": "41.889388",
        "START_LONGITUDE_MEASURE": "-71.438515",
        "END_LATITUDE_MEASURE": "41.889388",
        "END_LONGITUDE_MEASURE": "-71.438515",
        "SOURCE_MAP_SCALE": "100000",
        "H_REREFENCE_DATUM_NAME": "NAD83",
        "STATE_CONTACT_FIRST_NAME": "",
        "STATE_CONTACT_LAST_NAME": "",
        "STATE_CONTACT_AGENCY_NAME": "",
        "STATE_CONTACT_TEL_NUMBER": "",
        "STATE_CONTACT_URL": "",
        "SOURCE_JOINKEY": "{127723E4-A5B7-26FF-E063-42DE43865AE3}"
    },
    "RI305236": {
        "PRG_INT_CODE": "27247",
        "BEACH_NAME": "Camp St. Dorothy",
        "BEACH_COUNTY": "BRISTOL",
        "BEACH_STATE": "RI",
        "BEACH_TRIBE_CODE": "",
        "HISTORICAL_ID_FLAG": "N",
        "BEACH_LEN_IN_MI": "0.17",
        "BEACH_LATEST_BEACH_YEAR": "2023",
        "BEACH_ACCESS": "Private",
        "OWNER_ACCESS": "Private",
        "DORMANT_STATUS": "",
        "START_LATITUDE_MEASURE": "41.643481",
        "START_LONGITUDE_MEASURE": "-71.264276",
        "END_LATITUDE_MEASURE": "41.642809",
        "END_LONGITUDE_MEASURE": "-71.261237",
        "SOURCE_MAP_SCALE": "100000",
        "H_REREFENCE_DATUM_NAME": "NAD83",
        "STATE_CONTACT_FIRST_NAME": "",
        "STATE_CONTACT_LAST_NAME": "",
        "STATE_CONTACT_AGENCY_NAME": "",
        "STATE_CONTACT_TEL_NUMBER": "",
        "STATE_CONTACT_URL": "",
        "SOURCE_JOINKEY": "{127723E4-D807-26FF-E063-42DE43865AE3}"
    },
    "RI312978": {
        "PRG_INT_CODE": "27198",
        "BEACH_NAME": "Misquamicut State Beach",
        "BEACH_COUNTY": "WASHINGTON",
        "BEACH_STATE": "RI",
        "BEACH_TRIBE_CODE": "",
        "HISTORICAL_ID_FLAG": "N",
        "BEACH_LEN_IN_MI": "0.6",
        "BEACH_LATEST_BEACH_YEAR": "2023",
        "BEACH_ACCESS": "Public",
        "OWNER_ACCESS": "Public",
        "DORMANT_STATUS": "",
        "START_LATITUDE_MEASURE": "41.321949",
        "START_LONGITUDE_MEASURE": "-71.807939",
        "END_LATITUDE_MEASURE": "41.32384",
        "END_LONGITUDE_MEASURE": "-71.7965",
        "SOURCE_MAP_SCALE": "100000",
        "H_REREFENCE_DATUM_NAME": "NAD83",
        "STATE_CONTACT_FIRST_NAME": "",
        "STATE_CONTACT_LAST_NAME": "",
        "STATE_CONTACT_AGENCY_NAME": "",
        "STATE_CONTACT_TEL_NUMBER": "",
        "STATE_CONTACT_URL": "",
        "SOURCE_JOINKEY": "{127723E4-D809-26FF-E063-42DE43865AE3}"
    },
    "RI313278": {
        "PRG_INT_CODE": "27185",
        "BEACH_NAME": "Jims Trailer Park",
        "BEACH_COUNTY": "WASHINGTON",
        "BEACH_STATE": "RI",
        "BEACH_TRIBE_CODE": "",
        "HISTORICAL_ID_FLAG": "N",
        "BEACH_LEN_IN_MI": "0.08",
        "BEACH_LATEST_BEACH_YEAR": "2023",
        "BEACH_ACCESS": "Private",
        "OWNER_ACCESS": "Private",
        "DORMANT_STATUS": "",
        "START_LATITUDE_MEASURE": "41.324466",
        "START_LONGITUDE_MEASURE": "-71.792986",
        "END_LATITUDE_MEASURE": "41.324703",
        "END_LONGITUDE_MEASURE": "-71.791565",
        "SOURCE_MAP_SCALE": "100000",
        "H_REREFENCE_DATUM_NAME": "NAD83",
        "STATE_CONTACT_FIRST_NAME": "",
        "STATE_CONTACT_LAST_NAME": "",
        "STATE_CONTACT_AGENCY_NAME": "",
        "STATE_CONTACT_TEL_NUMBER": "",
        "STATE_CONTACT_URL": "",
        "SOURCE_JOINKEY": "{127723E4-D80B-26FF-E063-42DE43865AE3}"
    },
    "RI327519": {
        "PRG_INT_CODE": "27202",
        "BEACH_NAME": "Oakland Beach",
        "BEACH_COUNTY": "KENT",
        "BEACH_STATE": "RI",
        "BEACH_TRIBE_CODE": "",
        "HISTORICAL_ID_FLAG": "N",
        "BEACH_LEN_IN_MI": "0.27",
        "BEACH_LATEST_BEACH_YEAR": "2023",
        "BEACH_ACCESS": "Public",
        "OWNER_ACCESS": "Public",
        "DORMANT_STATUS": "",
        "START_LATITUDE_MEASURE": "41.684",
        "START_LONGITUDE_MEASURE": "-71.3999",
        "END_LATITUDE_MEASURE": "41.683955",
        "END_LONGITUDE_MEASURE": "-71.392876",
        "SOURCE_MAP_SCALE": "100000",
        "H_REREFENCE_DATUM_NAME": "NAD83",
        "STATE_CONTACT_FIRST_NAME": "",
        "STATE_CONTACT_LAST_NAME": "",
        "STATE_CONTACT_AGENCY_NAME": "",
        "STATE_CONTACT_TEL_NUMBER": "",
        "STATE_CONTACT_URL": "",
        "SOURCE_JOINKEY": "{127723E4-D82D-26FF-E063-42DE43865AE3}"
    },
    "RI330130": {
        "PRG_INT_CODE": "27149",
        "BEACH_NAME": "Camp Aldersgate",
        "BEACH_COUNTY": "PROVIDENCE",
        "BEACH_STATE": "RI",
        "BEACH_TRIBE_CODE": "",
        "HISTORICAL_ID_FLAG": "Y",
        "BEACH_LEN_IN_MI": "0.02",
        "BEACH_LATEST_BEACH_YEAR": "2023",
        "BEACH_ACCESS": "Private",
        "OWNER_ACCESS": "Private",
        "DORMANT_STATUS": "",
        "START_LATITUDE_MEASURE": "41.87674",
        "START_LONGITUDE_MEASURE": "-71.6637",
        "END_LATITUDE_MEASURE": "41.87674",
        "END_LONGITUDE_MEASURE": "-71.6637",
        "SOURCE_MAP_SCALE": "100000",
        "H_REREFENCE_DATUM_NAME": "NAD83",
        "STATE_CONTACT_FIRST_NAME": "",
        "STATE_CONTACT_LAST_NAME": "",
        "STATE_CONTACT_AGENCY_NAME": "",
        "STATE_CONTACT_TEL_NUMBER": "",
        "STATE_CONTACT_URL": "",
        "SOURCE_JOINKEY": "{127723E4-AA13-26FF-E063-42DE43865AE3}"
    },
    "RI333011": {
        "PRG_INT_CODE": "27246",
        "BEACH_NAME": "Misquamicut Club",
        "BEACH_COUNTY": "WASHINGTON",
        "BEACH_STATE": "RI",
        "BEACH_TRIBE_CODE": "",
        "HISTORICAL_ID_FLAG": "N",
        "BEACH_LEN_IN_MI": "0.18",
        "BEACH_LATEST_BEACH_YEAR": "2023",
        "BEACH_ACCESS": "Private",
        "OWNER_ACCESS": "Private",
        "DORMANT_STATUS": "",
        "START_LATITUDE_MEASURE": "41.310173",
        "START_LONGITUDE_MEASURE": "-71.862968",
        "END_LATITUDE_MEASURE": "41.309488",
        "END_LONGITUDE_MEASURE": "-71.859605",
        "SOURCE_MAP_SCALE": "100000",
        "H_REREFENCE_DATUM_NAME": "NAD83",
        "STATE_CONTACT_FIRST_NAME": "",
        "STATE_CONTACT_LAST_NAME": "",
        "STATE_CONTACT_AGENCY_NAME": "",
        "STATE_CONTACT_TEL_NUMBER": "",
        "STATE_CONTACT_URL": "",
        "SOURCE_JOINKEY": "{127723E4-D82F-26FF-E063-42DE43865AE3}"
    },
    "RI347023": {
        "PRG_INT_CODE": "166972",
        "BEACH_NAME": "Stillhouse Cove",
        "BEACH_COUNTY": "KENT",
        "BEACH_STATE": "RI",
        "BEACH_TRIBE_CODE": "",
        "HISTORICAL_ID_FLAG": "N",
        "BEACH_LEN_IN_MI": "0.18",
        "BEACH_LATEST_BEACH_YEAR": "2023",
        "BEACH_ACCESS": "Public",
        "OWNER_ACCESS": "Public",
        "DORMANT_STATUS": "",
        "START_LATITUDE_MEASURE": "41.769788",
        "START_LONGITUDE_MEASURE": "-71.3894",
        "END_LATITUDE_MEASURE": "41.767704",
        "END_LONGITUDE_MEASURE": "-71.387821",
        "SOURCE_MAP_SCALE": "100000",
        "H_REREFENCE_DATUM_NAME": "NAD83",
        "STATE_CONTACT_FIRST_NAME": "",
        "STATE_CONTACT_LAST_NAME": "",
        "STATE_CONTACT_AGENCY_NAME": "",
        "STATE_CONTACT_TEL_NUMBER": "",
        "STATE_CONTACT_URL": "",
        "SOURCE_JOINKEY": "{127723E4-D831-26FF-E063-42DE43865AE3}"
    },
    "RI354673": {
        "PRG_INT_CODE": "27167",
        "BEACH_NAME": "Dyer Woods Nudist Campground",
        "BEACH_COUNTY": "PROVIDENCE",
        "BEACH_STATE": "RI",
        "BEACH_TRIBE_CODE": "",
        "HISTORICAL_ID_FLAG": "Y",
        "BEACH_LEN_IN_MI": "0",
        "BEACH_LATEST_BEACH_YEAR": "2023",
        "BEACH_ACCESS": "Private",
        "OWNER_ACCESS": "Private",
        "DORMANT_STATUS": "",
        "START_LATITUDE_MEASURE": "41.74912",
        "START_LONGITUDE_MEASURE": "-71.7478",
        "END_LATITUDE_MEASURE": "41.74912",
        "END_LONGITUDE_MEASURE": "-71.7478",
        "SOURCE_MAP_SCALE": "100000",
        "H_REREFENCE_DATUM_NAME": "NAD83",
        "STATE_CONTACT_FIRST_NAME": "",
        "STATE_CONTACT_LAST_NAME": "",
        "STATE_CONTACT_AGENCY_NAME": "",
        "STATE_CONTACT_TEL_NUMBER": "",
        "STATE_CONTACT_URL": "",
        "SOURCE_JOINKEY": "{127723E4-A347-26FF-E063-42DE43865AE3}"
    },
    "RI359919": {
        "PRG_INT_CODE": "27226",
        "BEACH_NAME": "Warrens Point Beach Club",
        "BEACH_COUNTY": "NEWPORT",
        "BEACH_STATE": "RI",
        "BEACH_TRIBE_CODE": "",
        "HISTORICAL_ID_FLAG": "N",
        "BEACH_LEN_IN_MI": "0.15",
        "BEACH_LATEST_BEACH_YEAR": "2023",
        "BEACH_ACCESS": "Private",
        "OWNER_ACCESS": "Private",
        "DORMANT_STATUS": "",
        "START_LATITUDE_MEASURE": "41.460727",
        "START_LONGITUDE_MEASURE": "-71.17651",
        "END_LATITUDE_MEASURE": "41.461789",
        "END_LONGITUDE_MEASURE": "-71.174125",
        "SOURCE_MAP_SCALE": "100000",
        "H_REREFENCE_DATUM_NAME": "NAD83",
        "STATE_CONTACT_FIRST_NAME": "",
        "STATE_CONTACT_LAST_NAME": "",
        "STATE_CONTACT_AGENCY_NAME": "",
        "STATE_CONTACT_TEL_NUMBER": "",
        "STATE_CONTACT_URL": "",
        "SOURCE_JOINKEY": "{127723E4-D833-26FF-E063-42DE43865AE3}"
    },
    "RI365619": {
        "PRG_INT_CODE": "27147",
        "BEACH_NAME": "Buck Hill Family Campground",
        "BEACH_COUNTY": "PROVIDENCE",
        "BEACH_STATE": "RI",
        "BEACH_TRIBE_CODE": "",
        "HISTORICAL_ID_FLAG": "Y",
        "BEACH_LEN_IN_MI": "0.03",
        "BEACH_LATEST_BEACH_YEAR": "2023",
        "BEACH_ACCESS": "Public",
        "OWNER_ACCESS": "Public",
        "DORMANT_STATUS": "",
        "START_LATITUDE_MEASURE": "41.96308",
        "START_LONGITUDE_MEASURE": "-71.7972",
        "END_LATITUDE_MEASURE": "41.96308",
        "END_LONGITUDE_MEASURE": "-71.7972",
        "SOURCE_MAP_SCALE": "100000",
        "H_REREFENCE_DATUM_NAME": "NAD83",
        "STATE_CONTACT_FIRST_NAME": "",
        "STATE_CONTACT_LAST_NAME": "",
        "STATE_CONTACT_AGENCY_NAME": "",
        "STATE_CONTACT_TEL_NUMBER": "",
        "STATE_CONTACT_URL": "",
        "SOURCE_JOINKEY": "{127723E4-ABA7-26FF-E063-42DE43865AE3}"
    },
    "RI379521": {
        "PRG_INT_CODE": "27210",
        "BEACH_NAME": "Sam's Beach",
        "BEACH_COUNTY": "WASHINGTON",
        "BEACH_STATE": "RI",
        "BEACH_TRIBE_CODE": "",
        "HISTORICAL_ID_FLAG": "N",
        "BEACH_LEN_IN_MI": "0.02",
        "BEACH_LATEST_BEACH_YEAR": "2023",
        "BEACH_ACCESS": "Private",
        "OWNER_ACCESS": "Public",
        "DORMANT_STATUS": "",
        "START_LATITUDE_MEASURE": "41.32384",
        "START_LONGITUDE_MEASURE": "-71.7965",
        "END_LATITUDE_MEASURE": "41.323946",
        "END_LONGITUDE_MEASURE": "-71.796229",
        "SOURCE_MAP_SCALE": "100000",
        "H_REREFENCE_DATUM_NAME": "NAD83",
        "STATE_CONTACT_FIRST_NAME": "",
        "STATE_CONTACT_LAST_NAME": "",
        "STATE_CONTACT_AGENCY_NAME": "",
        "STATE_CONTACT_TEL_NUMBER": "",
        "STATE_CONTACT_URL": "",
        "SOURCE_JOINKEY": "{127723E4-D551-26FF-E063-42DE43865AE3}"
    },
    "RI380247": {
        "PRG_INT_CODE": "27195",
        "BEACH_NAME": "Misquamicut Fire District Beach",
        "BEACH_COUNTY": "WASHINGTON",
        "BEACH_STATE": "RI",
        "BEACH_TRIBE_CODE": "",
        "HISTORICAL_ID_FLAG": "N",
        "BEACH_LEN_IN_MI": "0.16",
        "BEACH_LATEST_BEACH_YEAR": "2023",
        "BEACH_ACCESS": "Public",
        "OWNER_ACCESS": "Public",
        "DORMANT_STATUS": "",
        "START_LATITUDE_MEASURE": "41.320301",
        "START_LONGITUDE_MEASURE": "-71.816314",
        "END_LATITUDE_MEASURE": "41.32127",
        "END_LONGITUDE_MEASURE": "-71.811376",
        "SOURCE_MAP_SCALE": "100000",
        "H_REREFENCE_DATUM_NAME": "NAD83",
        "STATE_CONTACT_FIRST_NAME": "",
        "STATE_CONTACT_LAST_NAME": "",
        "STATE_CONTACT_AGENCY_NAME": "",
        "STATE_CONTACT_TEL_NUMBER": "",
        "STATE_CONTACT_URL": "",
        "SOURCE_JOINKEY": "{127723E4-D553-26FF-E063-42DE43865AE3}"
    },
    "RI381265": {
        "PRG_INT_CODE": "27169",
        "BEACH_NAME": "Easton's Beach",
        "BEACH_COUNTY": "NEWPORT",
        "BEACH_STATE": "RI",
        "BEACH_TRIBE_CODE": "",
        "HISTORICAL_ID_FLAG": "N",
        "BEACH_LEN_IN_MI": "0.67",
        "BEACH_LATEST_BEACH_YEAR": "2023",
        "BEACH_ACCESS": "Public",
        "OWNER_ACCESS": "Public",
        "DORMANT_STATUS": "",
        "START_LATITUDE_MEASURE": "41.4887",
        "START_LONGITUDE_MEASURE": "-71.2858",
        "END_LATITUDE_MEASURE": "41.484497",
        "END_LONGITUDE_MEASURE": "-71.297208",
        "SOURCE_MAP_SCALE": "100000",
        "H_REREFENCE_DATUM_NAME": "NAD83",
        "STATE_CONTACT_FIRST_NAME": "",
        "STATE_CONTACT_LAST_NAME": "",
        "STATE_CONTACT_AGENCY_NAME": "",
        "STATE_CONTACT_TEL_NUMBER": "",
        "STATE_CONTACT_URL": "",
        "SOURCE_JOINKEY": "{127723E4-D555-26FF-E063-42DE43865AE3}"
    },
    "RI397836": {
        "PRG_INT_CODE": "27225",
        "BEACH_NAME": "Warren Town Beach",
        "BEACH_COUNTY": "BRISTOL",
        "BEACH_STATE": "RI",
        "BEACH_TRIBE_CODE": "",
        "HISTORICAL_ID_FLAG": "N",
        "BEACH_LEN_IN_MI": "0.05",
        "BEACH_LATEST_BEACH_YEAR": "2023",
        "BEACH_ACCESS": "Public",
        "OWNER_ACCESS": "Public",
        "DORMANT_STATUS": "",
        "START_LATITUDE_MEASURE": "41.722981",
        "START_LONGITUDE_MEASURE": "-71.285441",
        "END_LATITUDE_MEASURE": "41.722409",
        "END_LONGITUDE_MEASURE": "-71.284841",
        "SOURCE_MAP_SCALE": "100000",
        "H_REREFENCE_DATUM_NAME": "NAD83",
        "STATE_CONTACT_FIRST_NAME": "",
        "STATE_CONTACT_LAST_NAME": "",
        "STATE_CONTACT_AGENCY_NAME": "",
        "STATE_CONTACT_TEL_NUMBER": "",
        "STATE_CONTACT_URL": "",
        "SOURCE_JOINKEY": "{127723E4-D557-26FF-E063-42DE43865AE3}"
    },
    "RI403092": {
        "PRG_INT_CODE": "27174",
        "BEACH_NAME": "George Washington Campground",
        "BEACH_COUNTY": "PROVIDENCE",
        "BEACH_STATE": "RI",
        "BEACH_TRIBE_CODE": "",
        "HISTORICAL_ID_FLAG": "Y",
        "BEACH_LEN_IN_MI": "0.04",
        "BEACH_LATEST_BEACH_YEAR": "2023",
        "BEACH_ACCESS": "Private",
        "OWNER_ACCESS": "Private",
        "DORMANT_STATUS": "",
        "START_LATITUDE_MEASURE": "41.92379",
        "START_LONGITUDE_MEASURE": "-71.7587",
        "END_LATITUDE_MEASURE": "41.92379",
        "END_LONGITUDE_MEASURE": "-71.7587",
        "SOURCE_MAP_SCALE": "100000",
        "H_REREFENCE_DATUM_NAME": "NAD83",
        "STATE_CONTACT_FIRST_NAME": "",
        "STATE_CONTACT_LAST_NAME": "",
        "STATE_CONTACT_AGENCY_NAME": "",
        "STATE_CONTACT_TEL_NUMBER": "",
        "STATE_CONTACT_URL": "",
        "SOURCE_JOINKEY": "{127723E4-A5B9-26FF-E063-42DE43865AE3}"
    },
    "RI409932": {
        "PRG_INT_CODE": "27162",
        "BEACH_NAME": "Colwell's Campground",
        "BEACH_COUNTY": "KENT",
        "BEACH_STATE": "RI",
        "BEACH_TRIBE_CODE": "",
        "HISTORICAL_ID_FLAG": "Y",
        "BEACH_LEN_IN_MI": "0",
        "BEACH_LATEST_BEACH_YEAR": "2023",
        "BEACH_ACCESS": "Private",
        "OWNER_ACCESS": "Private",
        "DORMANT_STATUS": "",
        "START_LATITUDE_MEASURE": "41.70591",
        "START_LONGITUDE_MEASURE": "-71.6324",
        "END_LATITUDE_MEASURE": "41.70591",
        "END_LONGITUDE_MEASURE": "-71.6324",
        "SOURCE_MAP_SCALE": "100000",
        "H_REREFENCE_DATUM_NAME": "NAD83",
        "STATE_CONTACT_FIRST_NAME": "",
        "STATE_CONTACT_LAST_NAME": "",
        "STATE_CONTACT_AGENCY_NAME": "",
        "STATE_CONTACT_TEL_NUMBER": "",
        "STATE_CONTACT_URL": "",
        "SOURCE_JOINKEY": "{127723E4-A343-26FF-E063-42DE43865AE3}"
    },
    "RI415876": {
        "PRG_INT_CODE": "27141",
        "BEACH_NAME": "Bowdish Lake Campground",
        "BEACH_COUNTY": "PROVIDENCE",
        "BEACH_STATE": "RI",
        "BEACH_TRIBE_CODE": "",
        "HISTORICAL_ID_FLAG": "Y",
        "BEACH_LEN_IN_MI": "0.04",
        "BEACH_LATEST_BEACH_YEAR": "2023",
        "BEACH_ACCESS": "Private",
        "OWNER_ACCESS": "Private",
        "DORMANT_STATUS": "",
        "START_LATITUDE_MEASURE": "41.92059",
        "START_LONGITUDE_MEASURE": "-71.7784",
        "END_LATITUDE_MEASURE": "41.92059",
        "END_LONGITUDE_MEASURE": "-71.7784",
        "SOURCE_MAP_SCALE": "100000",
        "H_REREFENCE_DATUM_NAME": "NAD83",
        "STATE_CONTACT_FIRST_NAME": "",
        "STATE_CONTACT_LAST_NAME": "",
        "STATE_CONTACT_AGENCY_NAME": "",
        "STATE_CONTACT_TEL_NUMBER": "",
        "STATE_CONTACT_URL": "",
        "SOURCE_JOINKEY": "{127723E4-9E67-26FF-E063-42DE43865AE3}"
    },
    "RI420673": {
        "PRG_INT_CODE": "162558",
        "BEACH_NAME": "Easton's Point",
        "BEACH_COUNTY": "NEWPORT COUNTY",
        "BEACH_STATE": "RI",
        "BEACH_TRIBE_CODE": "",
        "HISTORICAL_ID_FLAG": "N",
        "BEACH_LEN_IN_MI": "0.03",
        "BEACH_LATEST_BEACH_YEAR": "2023",
        "BEACH_ACCESS": "Public",
        "OWNER_ACCESS": "Public",
        "DORMANT_STATUS": "",
        "START_LATITUDE_MEASURE": "41.48097",
        "START_LONGITUDE_MEASURE": "-71.27765",
        "END_LATITUDE_MEASURE": "41.48097",
        "END_LONGITUDE_MEASURE": "-71.27765",
        "SOURCE_MAP_SCALE": "100000",
        "H_REREFENCE_DATUM_NAME": "NAD83",
        "STATE_CONTACT_FIRST_NAME": "",
        "STATE_CONTACT_LAST_NAME": "",
        "STATE_CONTACT_AGENCY_NAME": "",
        "STATE_CONTACT_TEL_NUMBER": "",
        "STATE_CONTACT_URL": "",
        "SOURCE_JOINKEY": "{127723E4-D119-26FF-E063-42DE43865AE3}"
    },
    "RI420904": {
        "PRG_INT_CODE": "27243",
        "BEACH_NAME": "Atlantic Pizza And Grill",
        "BEACH_COUNTY": "WASHINGTON",
        "BEACH_STATE": "RI",
        "BEACH_TRIBE_CODE": "",
        "HISTORICAL_ID_FLAG": "N",
        "BEACH_LEN_IN_MI": "0.04",
        "BEACH_LATEST_BEACH_YEAR": "2023",
        "BEACH_ACCESS": "Private",
        "OWNER_ACCESS": "Private",
        "DORMANT_STATUS": "",
        "START_LATITUDE_MEASURE": "41.321191",
        "START_LONGITUDE_MEASURE": "-71.810538",
        "END_LATITUDE_MEASURE": "41.321433",
        "END_LONGITUDE_MEASURE": "-71.809774",
        "SOURCE_MAP_SCALE": "100000",
        "H_REREFENCE_DATUM_NAME": "NAD83",
        "STATE_CONTACT_FIRST_NAME": "",
        "STATE_CONTACT_LAST_NAME": "",
        "STATE_CONTACT_AGENCY_NAME": "",
        "STATE_CONTACT_TEL_NUMBER": "",
        "STATE_CONTACT_URL": "",
        "SOURCE_JOINKEY": "{127723E4-D559-26FF-E063-42DE43865AE3}"
    },
    "RI425865": {
        "PRG_INT_CODE": "7398",
        "BEACH_NAME": "ATLANTIC BEACH CASINO RESORT",
        "BEACH_COUNTY": "WASHINGTON",
        "BEACH_STATE": "RI",
        "BEACH_TRIBE_CODE": "",
        "HISTORICAL_ID_FLAG": "Y",
        "BEACH_LEN_IN_MI": "0.035037879",
        "BEACH_LATEST_BEACH_YEAR": "2023",
        "BEACH_ACCESS": "Public",
        "OWNER_ACCESS": "Private",
        "DORMANT_STATUS": "",
        "START_LATITUDE_MEASURE": "41.32408",
        "START_LONGITUDE_MEASURE": "-71.7948",
        "END_LATITUDE_MEASURE": "41.32408",
        "END_LONGITUDE_MEASURE": "-71.7948",
        "SOURCE_MAP_SCALE": "12500",
        "H_REREFENCE_DATUM_NAME": "NAD83",
        "STATE_CONTACT_FIRST_NAME": "",
        "STATE_CONTACT_LAST_NAME": "",
        "STATE_CONTACT_AGENCY_NAME": "",
        "STATE_CONTACT_TEL_NUMBER": "",
        "STATE_CONTACT_URL": "",
        "SOURCE_JOINKEY": "{127723E4-9F17-26FF-E063-42DE43865AE3}"
    },
    "RI426497": {
        "PRG_INT_CODE": "27222",
        "BEACH_NAME": "Dunes Club",
        "BEACH_COUNTY": "WASHINGTON",
        "BEACH_STATE": "RI",
        "BEACH_TRIBE_CODE": "",
        "HISTORICAL_ID_FLAG": "N",
        "BEACH_LEN_IN_MI": "0.65",
        "BEACH_LATEST_BEACH_YEAR": "2023",
        "BEACH_ACCESS": "Private",
        "OWNER_ACCESS": "Private",
        "DORMANT_STATUS": "",
        "START_LATITUDE_MEASURE": "41.438349",
        "START_LONGITUDE_MEASURE": "-71.450382",
        "END_LATITUDE_MEASURE": "41.441463",
        "END_LONGITUDE_MEASURE": "-71.4433",
        "SOURCE_MAP_SCALE": "100000",
        "H_REREFENCE_DATUM_NAME": "NAD83",
        "STATE_CONTACT_FIRST_NAME": "",
        "STATE_CONTACT_LAST_NAME": "",
        "STATE_CONTACT_AGENCY_NAME": "",
        "STATE_CONTACT_TEL_NUMBER": "",
        "STATE_CONTACT_URL": "",
        "SOURCE_JOINKEY": "{127723E4-D55B-26FF-E063-42DE43865AE3}"
    },
    "RI438872": {
        "PRG_INT_CODE": "27168",
        "BEACH_NAME": "East Matunuck State Beach",
        "BEACH_COUNTY": "WASHINGTON",
        "BEACH_STATE": "RI",
        "BEACH_TRIBE_CODE": "",
        "HISTORICAL_ID_FLAG": "N",
        "BEACH_LEN_IN_MI": "0.62",
        "BEACH_LATEST_BEACH_YEAR": "2023",
        "BEACH_ACCESS": "Public",
        "OWNER_ACCESS": "Public",
        "DORMANT_STATUS": "",
        "START_LATITUDE_MEASURE": "41.376228",
        "START_LONGITUDE_MEASURE": "-71.533209",
        "END_LATITUDE_MEASURE": "41.376856",
        "END_LONGITUDE_MEASURE": "-71.521347",
        "SOURCE_MAP_SCALE": "100000",
        "H_REREFENCE_DATUM_NAME": "NAD83",
        "STATE_CONTACT_FIRST_NAME": "",
        "STATE_CONTACT_LAST_NAME": "",
        "STATE_CONTACT_AGENCY_NAME": "",
        "STATE_CONTACT_TEL_NUMBER": "",
        "STATE_CONTACT_URL": "",
        "SOURCE_JOINKEY": "{127723E4-D55D-26FF-E063-42DE43865AE3}"
    },
    "RI446203": {
        "PRG_INT_CODE": "27245",
        "BEACH_NAME": "Paddy's Beach",
        "BEACH_COUNTY": "WASHINGTON",
        "BEACH_STATE": "RI",
        "BEACH_TRIBE_CODE": "",
        "HISTORICAL_ID_FLAG": "N",
        "BEACH_LEN_IN_MI": "0.07",
        "BEACH_LATEST_BEACH_YEAR": "2023",
        "BEACH_ACCESS": "Private",
        "OWNER_ACCESS": "Public",
        "DORMANT_STATUS": "",
        "START_LATITUDE_MEASURE": "41.32159",
        "START_LONGITUDE_MEASURE": "-71.80926",
        "END_LATITUDE_MEASURE": "41.32194",
        "END_LONGITUDE_MEASURE": "-71.80795",
        "SOURCE_MAP_SCALE": "100000",
        "H_REREFENCE_DATUM_NAME": "NAD83",
        "STATE_CONTACT_FIRST_NAME": "",
        "STATE_CONTACT_LAST_NAME": "",
        "STATE_CONTACT_AGENCY_NAME": "",
        "STATE_CONTACT_TEL_NUMBER": "",
        "STATE_CONTACT_URL": "",
        "SOURCE_JOINKEY": "{127723E4-D567-26FF-E063-42DE43865AE3}"
    },
    "RI451489": {
        "PRG_INT_CODE": "27242",
        "BEACH_NAME": "Camp Watchaug",
        "BEACH_COUNTY": "WASHINGTON",
        "BEACH_STATE": "RI",
        "BEACH_TRIBE_CODE": "",
        "HISTORICAL_ID_FLAG": "Y",
        "BEACH_LEN_IN_MI": "0.02",
        "BEACH_LATEST_BEACH_YEAR": "2023",
        "BEACH_ACCESS": "Private",
        "OWNER_ACCESS": "Private",
        "DORMANT_STATUS": "",
        "START_LATITUDE_MEASURE": "41.38163",
        "START_LONGITUDE_MEASURE": "-71.6796",
        "END_LATITUDE_MEASURE": "41.38163",
        "END_LONGITUDE_MEASURE": "-71.6796",
        "SOURCE_MAP_SCALE": "100000",
        "H_REREFENCE_DATUM_NAME": "NAD83",
        "STATE_CONTACT_FIRST_NAME": "",
        "STATE_CONTACT_LAST_NAME": "",
        "STATE_CONTACT_AGENCY_NAME": "",
        "STATE_CONTACT_TEL_NUMBER": "",
        "STATE_CONTACT_URL": "",
        "SOURCE_JOINKEY": "{127723E4-ABA9-26FF-E063-42DE43865AE3}"
    },
    "RI457239": {
        "PRG_INT_CODE": "27172",
        "BEACH_NAME": "Fred Benson Town Beach",
        "BEACH_COUNTY": "WASHINGTON",
        "BEACH_STATE": "RI",
        "BEACH_TRIBE_CODE": "",
        "HISTORICAL_ID_FLAG": "N",
        "BEACH_LEN_IN_MI": "1.83",
        "BEACH_LATEST_BEACH_YEAR": "2023",
        "BEACH_ACCESS": "Public",
        "OWNER_ACCESS": "Public",
        "DORMANT_STATUS": "",
        "START_LATITUDE_MEASURE": "41.176083",
        "START_LONGITUDE_MEASURE": "-71.562213",
        "END_LATITUDE_MEASURE": "41.201423",
        "END_LONGITUDE_MEASURE": "-71.561167",
        "SOURCE_MAP_SCALE": "100000",
        "H_REREFENCE_DATUM_NAME": "NAD83",
        "STATE_CONTACT_FIRST_NAME": "",
        "STATE_CONTACT_LAST_NAME": "",
        "STATE_CONTACT_AGENCY_NAME": "",
        "STATE_CONTACT_TEL_NUMBER": "",
        "STATE_CONTACT_URL": "",
        "SOURCE_JOINKEY": "{127723E4-D569-26FF-E063-42DE43865AE3}"
    },
    "RI462297": {
        "PRG_INT_CODE": "27129",
        "BEACH_NAME": "East Beach",
        "BEACH_COUNTY": "WASHINGTON",
        "BEACH_STATE": "RI",
        "BEACH_TRIBE_CODE": "",
        "HISTORICAL_ID_FLAG": "N",
        "BEACH_LEN_IN_MI": "2.84",
        "BEACH_LATEST_BEACH_YEAR": "2023",
        "BEACH_ACCESS": "Public",
        "OWNER_ACCESS": "Public",
        "DORMANT_STATUS": "",
        "START_LATITUDE_MEASURE": "41.34258",
        "START_LONGITUDE_MEASURE": "-71.6906",
        "END_LATITUDE_MEASURE": "41.356035",
        "END_LONGITUDE_MEASURE": "-71.639156",
        "SOURCE_MAP_SCALE": "100000",
        "H_REREFENCE_DATUM_NAME": "NAD83",
        "STATE_CONTACT_FIRST_NAME": "",
        "STATE_CONTACT_LAST_NAME": "",
        "STATE_CONTACT_AGENCY_NAME": "",
        "STATE_CONTACT_TEL_NUMBER": "",
        "STATE_CONTACT_URL": "",
        "SOURCE_JOINKEY": "{127723E4-D56B-26FF-E063-42DE43865AE3}"
    },
    "RI464453": {
        "PRG_INT_CODE": "27131",
        "BEACH_NAME": "Aquapaug Scout Reservation",
        "BEACH_COUNTY": "WASHINGTON",
        "BEACH_STATE": "RI",
        "BEACH_TRIBE_CODE": "",
        "HISTORICAL_ID_FLAG": "Y",
        "BEACH_LEN_IN_MI": "0.01",
        "BEACH_LATEST_BEACH_YEAR": "2023",
        "BEACH_ACCESS": "Private",
        "OWNER_ACCESS": "Private",
        "DORMANT_STATUS": "",
        "START_LATITUDE_MEASURE": "41.44135",
        "START_LONGITUDE_MEASURE": "-71.5611",
        "END_LATITUDE_MEASURE": "41.44135",
        "END_LONGITUDE_MEASURE": "-71.5611",
        "SOURCE_MAP_SCALE": "100000",
        "H_REREFENCE_DATUM_NAME": "NAD83",
        "STATE_CONTACT_FIRST_NAME": "",
        "STATE_CONTACT_LAST_NAME": "",
        "STATE_CONTACT_AGENCY_NAME": "",
        "STATE_CONTACT_TEL_NUMBER": "",
        "STATE_CONTACT_URL": "",
        "SOURCE_JOINKEY": "{127723E4-ABAB-26FF-E063-42DE43865AE3}"
    },
    "RI469483": {
        "PRG_INT_CODE": "27182",
        "BEACH_NAME": "Hazards Beach",
        "BEACH_COUNTY": "NEWPORT",
        "BEACH_STATE": "RI",
        "BEACH_TRIBE_CODE": "",
        "HISTORICAL_ID_FLAG": "N",
        "BEACH_LEN_IN_MI": "0.24",
        "BEACH_LATEST_BEACH_YEAR": "2023",
        "BEACH_ACCESS": "Private",
        "OWNER_ACCESS": "Private",
        "DORMANT_STATUS": "",
        "START_LATITUDE_MEASURE": "41.459887",
        "START_LONGITUDE_MEASURE": "-71.32268",
        "END_LATITUDE_MEASURE": "41.458805",
        "END_LONGITUDE_MEASURE": "-71.326973",
        "SOURCE_MAP_SCALE": "100000",
        "H_REREFENCE_DATUM_NAME": "NAD83",
        "STATE_CONTACT_FIRST_NAME": "",
        "STATE_CONTACT_LAST_NAME": "",
        "STATE_CONTACT_AGENCY_NAME": "",
        "STATE_CONTACT_TEL_NUMBER": "",
        "STATE_CONTACT_URL": "",
        "SOURCE_JOINKEY": "{127723E4-D56D-26FF-E063-42DE43865AE3}"
    },
    "RI469660": {
        "PRG_INT_CODE": "151821",
        "BEACH_NAME": "W. Alton Jones Beach",
        "BEACH_COUNTY": "KENT",
        "BEACH_STATE": "RI",
        "BEACH_TRIBE_CODE": "",
        "HISTORICAL_ID_FLAG": "Y",
        "BEACH_LEN_IN_MI": "0.01",
        "BEACH_LATEST_BEACH_YEAR": "2023",
        "BEACH_ACCESS": "Private",
        "OWNER_ACCESS": "Private",
        "DORMANT_STATUS": "",
        "START_LATITUDE_MEASURE": "41.62256",
        "START_LONGITUDE_MEASURE": "-71.71443",
        "END_LATITUDE_MEASURE": "41.62256",
        "END_LONGITUDE_MEASURE": "-71.71443",
        "SOURCE_MAP_SCALE": "100000",
        "H_REREFENCE_DATUM_NAME": "NAD83",
        "STATE_CONTACT_FIRST_NAME": "",
        "STATE_CONTACT_LAST_NAME": "",
        "STATE_CONTACT_AGENCY_NAME": "",
        "STATE_CONTACT_TEL_NUMBER": "",
        "STATE_CONTACT_URL": "",
        "SOURCE_JOINKEY": "{127723E4-9E6B-26FF-E063-42DE43865AE3}"
    },
    "RI475573": {
        "PRG_INT_CODE": "166964",
        "BEACH_NAME": "Reject's Beach",
        "BEACH_COUNTY": "NEWPORT",
        "BEACH_STATE": "RI",
        "BEACH_TRIBE_CODE": "",
        "HISTORICAL_ID_FLAG": "N",
        "BEACH_LEN_IN_MI": "0.06",
        "BEACH_LATEST_BEACH_YEAR": "2023",
        "BEACH_ACCESS": "Public",
        "OWNER_ACCESS": "Public",
        "DORMANT_STATUS": "",
        "START_LATITUDE_MEASURE": "41.455287",
        "START_LONGITUDE_MEASURE": "-71.311027",
        "END_LATITUDE_MEASURE": "41.455239",
        "END_LONGITUDE_MEASURE": "-71.311037",
        "SOURCE_MAP_SCALE": "100000",
        "H_REREFENCE_DATUM_NAME": "NAD83",
        "STATE_CONTACT_FIRST_NAME": "",
        "STATE_CONTACT_LAST_NAME": "",
        "STATE_CONTACT_AGENCY_NAME": "",
        "STATE_CONTACT_TEL_NUMBER": "",
        "STATE_CONTACT_URL": "",
        "SOURCE_JOINKEY": "{127723E4-D56F-26FF-E063-42DE43865AE3}"
    },
    "RI496144": {
        "PRG_INT_CODE": "27215",
        "BEACH_NAME": "Seaside Beach Club",
        "BEACH_COUNTY": "WASHINGTON",
        "BEACH_STATE": "RI",
        "BEACH_TRIBE_CODE": "",
        "HISTORICAL_ID_FLAG": "N",
        "BEACH_LEN_IN_MI": "0.08",
        "BEACH_LATEST_BEACH_YEAR": "2023",
        "BEACH_ACCESS": "Private",
        "OWNER_ACCESS": "Private",
        "DORMANT_STATUS": "",
        "START_LATITUDE_MEASURE": "41.328969",
        "START_LONGITUDE_MEASURE": "-71.766151",
        "END_LATITUDE_MEASURE": "41.329002",
        "END_LONGITUDE_MEASURE": "-71.764666",
        "SOURCE_MAP_SCALE": "100000",
        "H_REREFENCE_DATUM_NAME": "NAD83",
        "STATE_CONTACT_FIRST_NAME": "",
        "STATE_CONTACT_LAST_NAME": "",
        "STATE_CONTACT_AGENCY_NAME": "",
        "STATE_CONTACT_TEL_NUMBER": "",
        "STATE_CONTACT_URL": "",
        "SOURCE_JOINKEY": "{127723E4-D571-26FF-E063-42DE43865AE3}"
    },
    "RI501547": {
        "PRG_INT_CODE": "166971",
        "BEACH_NAME": "Rose Larissa",
        "BEACH_COUNTY": "PROVIDENCE",
        "BEACH_STATE": "RI",
        "BEACH_TRIBE_CODE": "",
        "HISTORICAL_ID_FLAG": "N",
        "BEACH_LEN_IN_MI": "0.9",
        "BEACH_LATEST_BEACH_YEAR": "2023",
        "BEACH_ACCESS": "Public",
        "OWNER_ACCESS": "Public",
        "DORMANT_STATUS": "",
        "START_LATITUDE_MEASURE": "41.762737",
        "START_LONGITUDE_MEASURE": "-71.363127",
        "END_LATITUDE_MEASURE": "41.750184",
        "END_LONGITUDE_MEASURE": "-71.362301",
        "SOURCE_MAP_SCALE": "100000",
        "H_REREFENCE_DATUM_NAME": "NAD83",
        "STATE_CONTACT_FIRST_NAME": "",
        "STATE_CONTACT_LAST_NAME": "",
        "STATE_CONTACT_AGENCY_NAME": "",
        "STATE_CONTACT_TEL_NUMBER": "",
        "STATE_CONTACT_URL": "",
        "SOURCE_JOINKEY": "{127723E4-D573-26FF-E063-42DE43865AE3}"
    },
    "RI520644": {
        "PRG_INT_CODE": "27130",
        "BEACH_NAME": "Andrea Hotel",
        "BEACH_COUNTY": "WASHINGTON",
        "BEACH_STATE": "RI",
        "BEACH_TRIBE_CODE": "",
        "HISTORICAL_ID_FLAG": "N",
        "BEACH_LEN_IN_MI": "0.06",
        "BEACH_LATEST_BEACH_YEAR": "2023",
        "BEACH_ACCESS": "Private",
        "OWNER_ACCESS": "Private",
        "DORMANT_STATUS": "",
        "START_LATITUDE_MEASURE": "41.320411",
        "START_LONGITUDE_MEASURE": "-71.815422",
        "END_LATITUDE_MEASURE": "41.320615",
        "END_LONGITUDE_MEASURE": "-71.814317",
        "SOURCE_MAP_SCALE": "100000",
        "H_REREFENCE_DATUM_NAME": "NAD83",
        "STATE_CONTACT_FIRST_NAME": "",
        "STATE_CONTACT_LAST_NAME": "",
        "STATE_CONTACT_AGENCY_NAME": "",
        "STATE_CONTACT_TEL_NUMBER": "",
        "STATE_CONTACT_URL": "",
        "SOURCE_JOINKEY": "{127723E4-D57F-26FF-E063-42DE43865AE3}"
    },
    "RI555809": {
        "PRG_INT_CODE": "165929",
        "BEACH_NAME": "Breezeway Beach",
        "BEACH_COUNTY": "WASHINGTON",
        "BEACH_STATE": "RI",
        "BEACH_TRIBE_CODE": "",
        "HISTORICAL_ID_FLAG": "N",
        "BEACH_LEN_IN_MI": "0.02",
        "BEACH_LATEST_BEACH_YEAR": "2023",
        "BEACH_ACCESS": "Private",
        "OWNER_ACCESS": "Private",
        "DORMANT_STATUS": "",
        "START_LATITUDE_MEASURE": "41.321214",
        "START_LONGITUDE_MEASURE": "-71.811149",
        "END_LATITUDE_MEASURE": "41.321286",
        "END_LONGITUDE_MEASURE": "-71.810722",
        "SOURCE_MAP_SCALE": "100000",
        "H_REREFENCE_DATUM_NAME": "NAD83",
        "STATE_CONTACT_FIRST_NAME": "",
        "STATE_CONTACT_LAST_NAME": "",
        "STATE_CONTACT_AGENCY_NAME": "",
        "STATE_CONTACT_TEL_NUMBER": "",
        "STATE_CONTACT_URL": "",
        "SOURCE_JOINKEY": "{127723E4-D581-26FF-E063-42DE43865AE3}"
    },
    "RI562117": {
        "PRG_INT_CODE": "27228",
        "BEACH_NAME": "Westerly Town Beach-Old",
        "BEACH_COUNTY": "WASHINGTON",
        "BEACH_STATE": "RI",
        "BEACH_TRIBE_CODE": "",
        "HISTORICAL_ID_FLAG": "N",
        "BEACH_LEN_IN_MI": "0.12",
        "BEACH_LATEST_BEACH_YEAR": "2023",
        "BEACH_ACCESS": "Public",
        "OWNER_ACCESS": "Public",
        "DORMANT_STATUS": "",
        "START_LATITUDE_MEASURE": "41.324703",
        "START_LONGITUDE_MEASURE": "-71.791565",
        "END_LATITUDE_MEASURE": "41.325147",
        "END_LONGITUDE_MEASURE": "-71.789593",
        "SOURCE_MAP_SCALE": "100000",
        "H_REREFENCE_DATUM_NAME": "NAD83",
        "STATE_CONTACT_FIRST_NAME": "",
        "STATE_CONTACT_LAST_NAME": "",
        "STATE_CONTACT_AGENCY_NAME": "",
        "STATE_CONTACT_TEL_NUMBER": "",
        "STATE_CONTACT_URL": "",
        "SOURCE_JOINKEY": "{127723E4-D583-26FF-E063-42DE43865AE3}"
    },
    "RI562192": {
        "PRG_INT_CODE": "27235",
        "BEACH_NAME": "Camp Watchaug Wohelo",
        "BEACH_COUNTY": "WASHINGTON",
        "BEACH_STATE": "RI",
        "BEACH_TRIBE_CODE": "",
        "HISTORICAL_ID_FLAG": "Y",
        "BEACH_LEN_IN_MI": "0.1",
        "BEACH_LATEST_BEACH_YEAR": "2023",
        "BEACH_ACCESS": "Private",
        "OWNER_ACCESS": "Private",
        "DORMANT_STATUS": "",
        "START_LATITUDE_MEASURE": "41.38632",
        "START_LONGITUDE_MEASURE": "-71.683",
        "END_LATITUDE_MEASURE": "41.38632",
        "END_LONGITUDE_MEASURE": "-71.683",
        "SOURCE_MAP_SCALE": "100000",
        "H_REREFENCE_DATUM_NAME": "NAD83",
        "STATE_CONTACT_FIRST_NAME": "",
        "STATE_CONTACT_LAST_NAME": "",
        "STATE_CONTACT_AGENCY_NAME": "",
        "STATE_CONTACT_TEL_NUMBER": "",
        "STATE_CONTACT_URL": "",
        "SOURCE_JOINKEY": "{127723E4-9E6D-26FF-E063-42DE43865AE3}"
    },
    "RI581418": {
        "PRG_INT_CODE": "151818",
        "BEACH_NAME": "Kingstons Camp",
        "BEACH_COUNTY": "WASHINGTON",
        "BEACH_STATE": "RI",
        "BEACH_TRIBE_CODE": "",
        "HISTORICAL_ID_FLAG": "Y",
        "BEACH_LEN_IN_MI": "0.01",
        "BEACH_LATEST_BEACH_YEAR": "2023",
        "BEACH_ACCESS": "Private",
        "OWNER_ACCESS": "Private",
        "DORMANT_STATUS": "",
        "START_LATITUDE_MEASURE": "41.471027",
        "START_LONGITUDE_MEASURE": "-71.554202",
        "END_LATITUDE_MEASURE": "41.471027",
        "END_LONGITUDE_MEASURE": "-71.554202",
        "SOURCE_MAP_SCALE": "100000",
        "H_REREFENCE_DATUM_NAME": "NAD83",
        "STATE_CONTACT_FIRST_NAME": "",
        "STATE_CONTACT_LAST_NAME": "",
        "STATE_CONTACT_AGENCY_NAME": "",
        "STATE_CONTACT_TEL_NUMBER": "",
        "STATE_CONTACT_URL": "",
        "SOURCE_JOINKEY": "{127723E4-A34F-26FF-E063-42DE43865AE3}"
    },
    "RI585150": {
        "PRG_INT_CODE": "165930",
        "BEACH_NAME": "Watch Hill Carousel Beach",
        "BEACH_COUNTY": "WASHINGTON",
        "BEACH_STATE": "RI",
        "BEACH_TRIBE_CODE": "",
        "HISTORICAL_ID_FLAG": "N",
        "BEACH_LEN_IN_MI": "0.1",
        "BEACH_LATEST_BEACH_YEAR": "2023",
        "BEACH_ACCESS": "Private",
        "OWNER_ACCESS": "Public",
        "DORMANT_STATUS": "",
        "START_LATITUDE_MEASURE": "41.309488",
        "START_LONGITUDE_MEASURE": "-71.859605",
        "END_LATITUDE_MEASURE": "41.30848",
        "END_LONGITUDE_MEASURE": "-71.858274",
        "SOURCE_MAP_SCALE": "100000",
        "H_REREFENCE_DATUM_NAME": "NAD83",
        "STATE_CONTACT_FIRST_NAME": "",
        "STATE_CONTACT_LAST_NAME": "",
        "STATE_CONTACT_AGENCY_NAME": "",
        "STATE_CONTACT_TEL_NUMBER": "",
        "STATE_CONTACT_URL": "",
        "SOURCE_JOINKEY": "{127723E4-D585-26FF-E063-42DE43865AE3}"
    },
    "RI591486": {
        "PRG_INT_CODE": "27205",
        "BEACH_NAME": "Pleasant View Inn",
        "BEACH_COUNTY": "WASHINGTON",
        "BEACH_STATE": "RI",
        "BEACH_TRIBE_CODE": "",
        "HISTORICAL_ID_FLAG": "N",
        "BEACH_LEN_IN_MI": "0.08",
        "BEACH_LATEST_BEACH_YEAR": "2023",
        "BEACH_ACCESS": "Private",
        "OWNER_ACCESS": "Private",
        "DORMANT_STATUS": "",
        "START_LATITUDE_MEASURE": "41.319916",
        "START_LONGITUDE_MEASURE": "-71.817703",
        "END_LATITUDE_MEASURE": "41.320301",
        "END_LONGITUDE_MEASURE": "-71.816314",
        "SOURCE_MAP_SCALE": "100000",
        "H_REREFENCE_DATUM_NAME": "NAD83",
        "STATE_CONTACT_FIRST_NAME": "",
        "STATE_CONTACT_LAST_NAME": "",
        "STATE_CONTACT_AGENCY_NAME": "",
        "STATE_CONTACT_TEL_NUMBER": "",
        "STATE_CONTACT_URL": "",
        "SOURCE_JOINKEY": "{127723E4-D587-26FF-E063-42DE43865AE3}"
    },
    "RI596700": {
        "PRG_INT_CODE": "27161",
        "BEACH_NAME": "City Park Beach",
        "BEACH_COUNTY": "KENT",
        "BEACH_STATE": "RI",
        "BEACH_TRIBE_CODE": "",
        "HISTORICAL_ID_FLAG": "N",
        "BEACH_LEN_IN_MI": "0.3",
        "BEACH_LATEST_BEACH_YEAR": "2023",
        "BEACH_ACCESS": "Public",
        "OWNER_ACCESS": "Public",
        "DORMANT_STATUS": "",
        "START_LATITUDE_MEASURE": "41.687259",
        "START_LONGITUDE_MEASURE": "-71.408662",
        "END_LATITUDE_MEASURE": "41.689688",
        "END_LONGITUDE_MEASURE": "-71.404888",
        "SOURCE_MAP_SCALE": "100000",
        "H_REREFENCE_DATUM_NAME": "NAD83",
        "STATE_CONTACT_FIRST_NAME": "",
        "STATE_CONTACT_LAST_NAME": "",
        "STATE_CONTACT_AGENCY_NAME": "",
        "STATE_CONTACT_TEL_NUMBER": "",
        "STATE_CONTACT_URL": "",
        "SOURCE_JOINKEY": "{127723E4-D5A5-26FF-E063-42DE43865AE3}"
    },
    "RI600355": {
        "PRG_INT_CODE": "151820",
        "BEACH_NAME": "Pastore Leisure Center-Ladd School Camp",
        "BEACH_COUNTY": "WASHINGTON",
        "BEACH_STATE": "RI",
        "BEACH_TRIBE_CODE": "",
        "HISTORICAL_ID_FLAG": "Y",
        "BEACH_LEN_IN_MI": "0.02",
        "BEACH_LATEST_BEACH_YEAR": "2023",
        "BEACH_ACCESS": "Private",
        "OWNER_ACCESS": "Private",
        "DORMANT_STATUS": "",
        "START_LATITUDE_MEASURE": "41.39046",
        "START_LONGITUDE_MEASURE": "-71.68502",
        "END_LATITUDE_MEASURE": "41.39046",
        "END_LONGITUDE_MEASURE": "-71.68502",
        "SOURCE_MAP_SCALE": "100000",
        "H_REREFENCE_DATUM_NAME": "NAD83",
        "STATE_CONTACT_FIRST_NAME": "",
        "STATE_CONTACT_LAST_NAME": "",
        "STATE_CONTACT_AGENCY_NAME": "",
        "STATE_CONTACT_TEL_NUMBER": "",
        "STATE_CONTACT_URL": "",
        "SOURCE_JOINKEY": "{127723E4-ABAD-26FF-E063-42DE43865AE3}"
    },
    "RI606480": {
        "PRG_INT_CODE": "27171",
        "BEACH_NAME": "Fort Adams State Park Beach",
        "BEACH_COUNTY": "NEWPORT",
        "BEACH_STATE": "RI",
        "BEACH_TRIBE_CODE": "",
        "HISTORICAL_ID_FLAG": "N",
        "BEACH_LEN_IN_MI": "0.05",
        "BEACH_LATEST_BEACH_YEAR": "2023",
        "BEACH_ACCESS": "Public",
        "OWNER_ACCESS": "Public",
        "DORMANT_STATUS": "",
        "START_LATITUDE_MEASURE": "41.471817",
        "START_LONGITUDE_MEASURE": "-71.33662",
        "END_LATITUDE_MEASURE": "41.472276",
        "END_LONGITUDE_MEASURE": "-71.337389",
        "SOURCE_MAP_SCALE": "100000",
        "H_REREFENCE_DATUM_NAME": "NAD83",
        "STATE_CONTACT_FIRST_NAME": "",
        "STATE_CONTACT_LAST_NAME": "",
        "STATE_CONTACT_AGENCY_NAME": "",
        "STATE_CONTACT_TEL_NUMBER": "",
        "STATE_CONTACT_URL": "",
        "SOURCE_JOINKEY": "{127723E4-D5A7-26FF-E063-42DE43865AE3}"
    },
    "RI606484": {
        "PRG_INT_CODE": "27214",
        "BEACH_NAME": "Scarborough State Beach - North",
        "BEACH_COUNTY": "WASHINGTON",
        "BEACH_STATE": "RI",
        "BEACH_TRIBE_CODE": "",
        "HISTORICAL_ID_FLAG": "N",
        "BEACH_LEN_IN_MI": "0.61",
        "BEACH_LATEST_BEACH_YEAR": "2023",
        "BEACH_ACCESS": "Public",
        "OWNER_ACCESS": "Public",
        "DORMANT_STATUS": "",
        "START_LATITUDE_MEASURE": "41.387902",
        "START_LONGITUDE_MEASURE": "-71.473738",
        "END_LATITUDE_MEASURE": "41.395039",
        "END_LONGITUDE_MEASURE": "-71.466923",
        "SOURCE_MAP_SCALE": "100000",
        "H_REREFENCE_DATUM_NAME": "NAD83",
        "STATE_CONTACT_FIRST_NAME": "",
        "STATE_CONTACT_LAST_NAME": "",
        "STATE_CONTACT_AGENCY_NAME": "",
        "STATE_CONTACT_TEL_NUMBER": "",
        "STATE_CONTACT_URL": "",
        "SOURCE_JOINKEY": "{127723E4-D5A9-26FF-E063-42DE43865AE3}"
    },
    "RI606485": {
        "PRG_INT_CODE": "129994",
        "BEACH_NAME": "Scarborough State Beach - South",
        "BEACH_COUNTY": "WASHINGTON",
        "BEACH_STATE": "RI",
        "BEACH_TRIBE_CODE": "",
        "HISTORICAL_ID_FLAG": "N",
        "BEACH_LEN_IN_MI": "0.27",
        "BEACH_LATEST_BEACH_YEAR": "2023",
        "BEACH_ACCESS": "Public",
        "OWNER_ACCESS": "Public",
        "DORMANT_STATUS": "",
        "START_LATITUDE_MEASURE": "41.384399",
        "START_LONGITUDE_MEASURE": "-71.476092",
        "END_LATITUDE_MEASURE": "41.387902",
        "END_LONGITUDE_MEASURE": "-71.473738",
        "SOURCE_MAP_SCALE": "100000",
        "H_REREFENCE_DATUM_NAME": "NAD83",
        "STATE_CONTACT_FIRST_NAME": "",
        "STATE_CONTACT_LAST_NAME": "",
        "STATE_CONTACT_AGENCY_NAME": "",
        "STATE_CONTACT_TEL_NUMBER": "",
        "STATE_CONTACT_URL": "",
        "SOURCE_JOINKEY": "{127723E4-D5AB-26FF-E063-42DE43865AE3}"
    },
    "RI609760": {
        "PRG_INT_CODE": "27220",
        "BEACH_NAME": "Atlantic Beach Park",
        "BEACH_COUNTY": "WASHINGTON",
        "BEACH_STATE": "RI",
        "BEACH_TRIBE_CODE": "",
        "HISTORICAL_ID_FLAG": "N",
        "BEACH_LEN_IN_MI": "0.08",
        "BEACH_LATEST_BEACH_YEAR": "2023",
        "BEACH_ACCESS": "Private",
        "OWNER_ACCESS": "Private",
        "DORMANT_STATUS": "",
        "START_LATITUDE_MEASURE": "41.324124",
        "START_LONGITUDE_MEASURE": "-71.79457",
        "END_LATITUDE_MEASURE": "41.324425",
        "END_LONGITUDE_MEASURE": "-71.792964",
        "SOURCE_MAP_SCALE": "100000",
        "H_REREFENCE_DATUM_NAME": "NAD83",
        "STATE_CONTACT_FIRST_NAME": "",
        "STATE_CONTACT_LAST_NAME": "",
        "STATE_CONTACT_AGENCY_NAME": "",
        "STATE_CONTACT_TEL_NUMBER": "",
        "STATE_CONTACT_URL": "",
        "SOURCE_JOINKEY": "{127723E4-D5C9-26FF-E063-42DE43865AE3}"
    },
    "RI624416": {
        "PRG_INT_CODE": "27170",
        "BEACH_NAME": "Episcopal Conference Center Beach",
        "BEACH_COUNTY": "PROVIDENCE",
        "BEACH_STATE": "RI",
        "BEACH_TRIBE_CODE": "",
        "HISTORICAL_ID_FLAG": "Y",
        "BEACH_LEN_IN_MI": "0.04",
        "BEACH_LATEST_BEACH_YEAR": "2023",
        "BEACH_ACCESS": "Private",
        "OWNER_ACCESS": "Private",
        "DORMANT_STATUS": "",
        "START_LATITUDE_MEASURE": "41.93271",
        "START_LONGITUDE_MEASURE": "-71.7069",
        "END_LATITUDE_MEASURE": "41.93271",
        "END_LONGITUDE_MEASURE": "-71.7069",
        "SOURCE_MAP_SCALE": "100000",
        "H_REREFENCE_DATUM_NAME": "NAD83",
        "STATE_CONTACT_FIRST_NAME": "",
        "STATE_CONTACT_LAST_NAME": "",
        "STATE_CONTACT_AGENCY_NAME": "",
        "STATE_CONTACT_TEL_NUMBER": "",
        "STATE_CONTACT_URL": "",
        "SOURCE_JOINKEY": "{127723E4-9E6F-26FF-E063-42DE43865AE3}"
    },
    "RI627966": {
        "PRG_INT_CODE": "27145",
        "BEACH_NAME": "Bristol Town Beach",
        "BEACH_COUNTY": "BRISTOL",
        "BEACH_STATE": "RI",
        "BEACH_TRIBE_CODE": "",
        "HISTORICAL_ID_FLAG": "N",
        "BEACH_LEN_IN_MI": "0.17",
        "BEACH_LATEST_BEACH_YEAR": "2023",
        "BEACH_ACCESS": "Public",
        "OWNER_ACCESS": "Public",
        "DORMANT_STATUS": "",
        "START_LATITUDE_MEASURE": "41.6862",
        "START_LONGITUDE_MEASURE": "-71.2943",
        "END_LATITUDE_MEASURE": "41.688377",
        "END_LONGITUDE_MEASURE": "-71.292879",
        "SOURCE_MAP_SCALE": "100000",
        "H_REREFENCE_DATUM_NAME": "NAD83",
        "STATE_CONTACT_FIRST_NAME": "",
        "STATE_CONTACT_LAST_NAME": "",
        "STATE_CONTACT_AGENCY_NAME": "",
        "STATE_CONTACT_TEL_NUMBER": "",
        "STATE_CONTACT_URL": "",
        "SOURCE_JOINKEY": "{127723E4-D623-26FF-E063-42DE43865AE3}"
    },
    "RI637940": {
        "PRG_INT_CODE": "27221",
        "BEACH_NAME": "Sandy Shore Motel",
        "BEACH_COUNTY": "WASHINGTON",
        "BEACH_STATE": "RI",
        "BEACH_TRIBE_CODE": "",
        "HISTORICAL_ID_FLAG": "N",
        "BEACH_LEN_IN_MI": "0.03",
        "BEACH_LATEST_BEACH_YEAR": "2023",
        "BEACH_ACCESS": "Private",
        "OWNER_ACCESS": "Private",
        "DORMANT_STATUS": "",
        "START_LATITUDE_MEASURE": "41.32152",
        "START_LONGITUDE_MEASURE": "-71.809804",
        "END_LATITUDE_MEASURE": "41.321614",
        "END_LONGITUDE_MEASURE": "-71.809291",
        "SOURCE_MAP_SCALE": "100000",
        "H_REREFENCE_DATUM_NAME": "NAD83",
        "STATE_CONTACT_FIRST_NAME": "",
        "STATE_CONTACT_LAST_NAME": "",
        "STATE_CONTACT_AGENCY_NAME": "",
        "STATE_CONTACT_TEL_NUMBER": "",
        "STATE_CONTACT_URL": "",
        "SOURCE_JOINKEY": "{127723E4-D625-26FF-E063-42DE43865AE3}"
    },
    "RI649849": {
        "PRG_INT_CODE": "27209",
        "BEACH_NAME": "Salty Brine Beach",
        "BEACH_COUNTY": "WASHINGTON",
        "BEACH_STATE": "RI",
        "BEACH_TRIBE_CODE": "",
        "HISTORICAL_ID_FLAG": "N",
        "BEACH_LEN_IN_MI": "0.03",
        "BEACH_LATEST_BEACH_YEAR": "2023",
        "BEACH_ACCESS": "Public",
        "OWNER_ACCESS": "Public",
        "DORMANT_STATUS": "",
        "START_LATITUDE_MEASURE": "41.375355",
        "START_LONGITUDE_MEASURE": "-71.513265",
        "END_LATITUDE_MEASURE": "41.375531",
        "END_LONGITUDE_MEASURE": "-71.51265",
        "SOURCE_MAP_SCALE": "100000",
        "H_REREFENCE_DATUM_NAME": "NAD83",
        "STATE_CONTACT_FIRST_NAME": "",
        "STATE_CONTACT_LAST_NAME": "",
        "STATE_CONTACT_AGENCY_NAME": "",
        "STATE_CONTACT_TEL_NUMBER": "",
        "STATE_CONTACT_URL": "",
        "SOURCE_JOINKEY": "{127723E4-D627-26FF-E063-42DE43865AE3}"
    },
    "RI657402": {
        "PRG_INT_CODE": "27231",
        "BEACH_NAME": "Willow Dell Beach Club",
        "BEACH_COUNTY": "WASHINGTON",
        "BEACH_STATE": "RI",
        "BEACH_TRIBE_CODE": "",
        "HISTORICAL_ID_FLAG": "N",
        "BEACH_LEN_IN_MI": "0.22",
        "BEACH_LATEST_BEACH_YEAR": "2023",
        "BEACH_ACCESS": "Private",
        "OWNER_ACCESS": "Private",
        "DORMANT_STATUS": "",
        "START_LATITUDE_MEASURE": "41.374139",
        "START_LONGITUDE_MEASURE": "-71.555781",
        "END_LATITUDE_MEASURE": "41.374776",
        "END_LONGITUDE_MEASURE": "-71.551752",
        "SOURCE_MAP_SCALE": "100000",
        "H_REREFENCE_DATUM_NAME": "NAD83",
        "STATE_CONTACT_FIRST_NAME": "",
        "STATE_CONTACT_LAST_NAME": "",
        "STATE_CONTACT_AGENCY_NAME": "",
        "STATE_CONTACT_TEL_NUMBER": "",
        "STATE_CONTACT_URL": "",
        "SOURCE_JOINKEY": "{127723E4-D629-26FF-E063-42DE43865AE3}"
    },
    "RI673854": {
        "PRG_INT_CODE": "27132",
        "BEACH_NAME": "Atlantic Beach Club",
        "BEACH_COUNTY": "NEWPORT",
        "BEACH_STATE": "RI",
        "BEACH_TRIBE_CODE": "",
        "HISTORICAL_ID_FLAG": "N",
        "BEACH_LEN_IN_MI": "0.22",
        "BEACH_LATEST_BEACH_YEAR": "2023",
        "BEACH_ACCESS": "Private",
        "OWNER_ACCESS": "Public",
        "DORMANT_STATUS": "",
        "START_LATITUDE_MEASURE": "41.488182",
        "START_LONGITUDE_MEASURE": "-71.282268",
        "END_LATITUDE_MEASURE": "41.489432",
        "END_LONGITUDE_MEASURE": "-71.286021",
        "SOURCE_MAP_SCALE": "100000",
        "H_REREFENCE_DATUM_NAME": "NAD83",
        "STATE_CONTACT_FIRST_NAME": "",
        "STATE_CONTACT_LAST_NAME": "",
        "STATE_CONTACT_AGENCY_NAME": "",
        "STATE_CONTACT_TEL_NUMBER": "",
        "STATE_CONTACT_URL": "",
        "SOURCE_JOINKEY": "{127723E4-D62B-26FF-E063-42DE43865AE3}"
    },
    "RI676834": {
        "PRG_INT_CODE": "166885",
        "BEACH_NAME": "Green Hill Beach Club",
        "BEACH_COUNTY": "WASHINGTON",
        "BEACH_STATE": "RI",
        "BEACH_TRIBE_CODE": "",
        "HISTORICAL_ID_FLAG": "N",
        "BEACH_LEN_IN_MI": "1.09",
        "BEACH_LATEST_BEACH_YEAR": "2023",
        "BEACH_ACCESS": "Public",
        "OWNER_ACCESS": "Public",
        "DORMANT_STATUS": "",
        "START_LATITUDE_MEASURE": "41.364826",
        "START_LONGITUDE_MEASURE": "-71.600202",
        "END_LATITUDE_MEASURE": "41.364762",
        "END_LONGITUDE_MEASURE": "-71.600546",
        "SOURCE_MAP_SCALE": "100000",
        "H_REREFENCE_DATUM_NAME": "NAD83",
        "STATE_CONTACT_FIRST_NAME": "",
        "STATE_CONTACT_LAST_NAME": "",
        "STATE_CONTACT_AGENCY_NAME": "",
        "STATE_CONTACT_TEL_NUMBER": "",
        "STATE_CONTACT_URL": "",
        "SOURCE_JOINKEY": "{127723E4-D62D-26FF-E063-42DE43865AE3}"
    },
    "RI684009": {
        "PRG_INT_CODE": "27165",
        "BEACH_NAME": "Difonzo Recreation Area",
        "BEACH_COUNTY": "PROVIDENCE",
        "BEACH_STATE": "RI",
        "BEACH_TRIBE_CODE": "",
        "HISTORICAL_ID_FLAG": "Y",
        "BEACH_LEN_IN_MI": "0.03",
        "BEACH_LATEST_BEACH_YEAR": "2023",
        "BEACH_ACCESS": "Public",
        "OWNER_ACCESS": "Public",
        "DORMANT_STATUS": "",
        "START_LATITUDE_MEASURE": "41.91339",
        "START_LONGITUDE_MEASURE": "-71.6539",
        "END_LATITUDE_MEASURE": "41.91339",
        "END_LONGITUDE_MEASURE": "-71.6539",
        "SOURCE_MAP_SCALE": "100000",
        "H_REREFENCE_DATUM_NAME": "NAD83",
        "STATE_CONTACT_FIRST_NAME": "",
        "STATE_CONTACT_LAST_NAME": "",
        "STATE_CONTACT_AGENCY_NAME": "",
        "STATE_CONTACT_TEL_NUMBER": "",
        "STATE_CONTACT_URL": "",
        "SOURCE_JOINKEY": "{127723E4-AB8D-26FF-E063-42DE43865AE3}"
    },
    "RI695386": {
        "PRG_INT_CODE": "7379",
        "BEACH_NAME": "Sandy Point Beach",
        "BEACH_COUNTY": "WASHINGTON",
        "BEACH_STATE": "RI",
        "BEACH_TRIBE_CODE": "",
        "HISTORICAL_ID_FLAG": "N",
        "BEACH_LEN_IN_MI": "0.46",
        "BEACH_LATEST_BEACH_YEAR": "2023",
        "BEACH_ACCESS": "Public",
        "OWNER_ACCESS": "Public",
        "DORMANT_STATUS": "",
        "START_LATITUDE_MEASURE": "41.555631",
        "START_LONGITUDE_MEASURE": "-71.237433",
        "END_LATITUDE_MEASURE": "41.550353",
        "END_LONGITUDE_MEASURE": "-71.234846",
        "SOURCE_MAP_SCALE": "100000",
        "H_REREFENCE_DATUM_NAME": "NAD83",
        "STATE_CONTACT_FIRST_NAME": "",
        "STATE_CONTACT_LAST_NAME": "",
        "STATE_CONTACT_AGENCY_NAME": "",
        "STATE_CONTACT_TEL_NUMBER": "",
        "STATE_CONTACT_URL": "",
        "SOURCE_JOINKEY": "{127723E4-D55F-26FF-E063-42DE43865AE3}"
    },
    "RI696590": {
        "PRG_INT_CODE": "27219",
        "BEACH_NAME": "Spring Lake Beach",
        "BEACH_COUNTY": "PROVIDENCE",
        "BEACH_STATE": "RI",
        "BEACH_TRIBE_CODE": "",
        "HISTORICAL_ID_FLAG": "Y",
        "BEACH_LEN_IN_MI": "0.08",
        "BEACH_LATEST_BEACH_YEAR": "2023",
        "BEACH_ACCESS": "Public",
        "OWNER_ACCESS": "Public",
        "DORMANT_STATUS": "",
        "START_LATITUDE_MEASURE": "41.986302",
        "START_LONGITUDE_MEASURE": "-71.657423",
        "END_LATITUDE_MEASURE": "41.987279",
        "END_LONGITUDE_MEASURE": "-71.658244",
        "SOURCE_MAP_SCALE": "100000",
        "H_REREFENCE_DATUM_NAME": "NAD83",
        "STATE_CONTACT_FIRST_NAME": "",
        "STATE_CONTACT_LAST_NAME": "",
        "STATE_CONTACT_AGENCY_NAME": "",
        "STATE_CONTACT_TEL_NUMBER": "",
        "STATE_CONTACT_URL": "",
        "SOURCE_JOINKEY": "{127723E4-A257-26FF-E063-42DE43865AE3}"
    },
    "RI699153": {
        "PRG_INT_CODE": "27160",
        "BEACH_NAME": "Charlestown Town Beach",
        "BEACH_COUNTY": "WASHINGTON",
        "BEACH_STATE": "RI",
        "BEACH_TRIBE_CODE": "",
        "HISTORICAL_ID_FLAG": "N",
        "BEACH_LEN_IN_MI": "0.42",
        "BEACH_LATEST_BEACH_YEAR": "2023",
        "BEACH_ACCESS": "Public",
        "OWNER_ACCESS": "Public",
        "DORMANT_STATUS": "",
        "START_LATITUDE_MEASURE": "41.359188",
        "START_LONGITUDE_MEASURE": "-71.631721",
        "END_LATITUDE_MEASURE": "41.361374",
        "END_LONGITUDE_MEASURE": "-71.624246",
        "SOURCE_MAP_SCALE": "100000",
        "H_REREFENCE_DATUM_NAME": "NAD83",
        "STATE_CONTACT_FIRST_NAME": "",
        "STATE_CONTACT_LAST_NAME": "",
        "STATE_CONTACT_AGENCY_NAME": "",
        "STATE_CONTACT_TEL_NUMBER": "",
        "STATE_CONTACT_URL": "",
        "SOURCE_JOINKEY": "{127723E4-D561-26FF-E063-42DE43865AE3}"
    },
    "RI700345": {
        "PRG_INT_CODE": "27188",
        "BEACH_NAME": "Larkin's Pond Beach",
        "BEACH_COUNTY": "WASHINGTON",
        "BEACH_STATE": "RI",
        "BEACH_TRIBE_CODE": "",
        "HISTORICAL_ID_FLAG": "Y",
        "BEACH_LEN_IN_MI": "0.01",
        "BEACH_LATEST_BEACH_YEAR": "2023",
        "BEACH_ACCESS": "Private",
        "OWNER_ACCESS": "Private",
        "DORMANT_STATUS": "",
        "START_LATITUDE_MEASURE": "41.469312",
        "START_LONGITUDE_MEASURE": "-71.555023",
        "END_LATITUDE_MEASURE": "41.469312",
        "END_LONGITUDE_MEASURE": "-71.555023",
        "SOURCE_MAP_SCALE": "100000",
        "H_REREFENCE_DATUM_NAME": "NAD83",
        "STATE_CONTACT_FIRST_NAME": "",
        "STATE_CONTACT_LAST_NAME": "",
        "STATE_CONTACT_AGENCY_NAME": "",
        "STATE_CONTACT_TEL_NUMBER": "",
        "STATE_CONTACT_URL": "",
        "SOURCE_JOINKEY": "{127723E4-AAB1-26FF-E063-42DE43865AE3}"
    },
    "RI706698": {
        "PRG_INT_CODE": "27187",
        "BEACH_NAME": "King Park Beach",
        "BEACH_COUNTY": "NEWPORT",
        "BEACH_STATE": "RI",
        "BEACH_TRIBE_CODE": "",
        "HISTORICAL_ID_FLAG": "N",
        "BEACH_LEN_IN_MI": "0.08",
        "BEACH_LATEST_BEACH_YEAR": "2023",
        "BEACH_ACCESS": "Public",
        "OWNER_ACCESS": "Public",
        "DORMANT_STATUS": "",
        "START_LATITUDE_MEASURE": "41.4766",
        "START_LONGITUDE_MEASURE": "-71.3199",
        "END_LATITUDE_MEASURE": "41.477179",
        "END_LONGITUDE_MEASURE": "-71.318935",
        "SOURCE_MAP_SCALE": "100000",
        "H_REREFENCE_DATUM_NAME": "NAD83",
        "STATE_CONTACT_FIRST_NAME": "",
        "STATE_CONTACT_LAST_NAME": "",
        "STATE_CONTACT_AGENCY_NAME": "",
        "STATE_CONTACT_TEL_NUMBER": "",
        "STATE_CONTACT_URL": "",
        "SOURCE_JOINKEY": "{127723E4-D563-26FF-E063-42DE43865AE3}"
    },
    "RI711415": {
        "PRG_INT_CODE": "27155",
        "BEACH_NAME": "Camp Meehan",
        "BEACH_COUNTY": "PROVIDENCE",
        "BEACH_STATE": "RI",
        "BEACH_TRIBE_CODE": "",
        "HISTORICAL_ID_FLAG": "Y",
        "BEACH_LEN_IN_MI": "0.01",
        "BEACH_LATEST_BEACH_YEAR": "2023",
        "BEACH_ACCESS": "Private",
        "OWNER_ACCESS": "Private",
        "DORMANT_STATUS": "",
        "START_LATITUDE_MEASURE": "41.87342",
        "START_LONGITUDE_MEASURE": "-71.4632",
        "END_LATITUDE_MEASURE": "41.87342",
        "END_LONGITUDE_MEASURE": "-71.4632",
        "SOURCE_MAP_SCALE": "100000",
        "H_REREFENCE_DATUM_NAME": "NAD83",
        "STATE_CONTACT_FIRST_NAME": "",
        "STATE_CONTACT_LAST_NAME": "",
        "STATE_CONTACT_AGENCY_NAME": "",
        "STATE_CONTACT_TEL_NUMBER": "",
        "STATE_CONTACT_URL": "",
        "SOURCE_JOINKEY": "{127723E4-AB41-26FF-E063-42DE43865AE3}"
    },
    "RI729634": {
        "PRG_INT_CODE": "27217",
        "BEACH_NAME": "South Shore Beach",
        "BEACH_COUNTY": "NEWPORT",
        "BEACH_STATE": "RI",
        "BEACH_TRIBE_CODE": "",
        "HISTORICAL_ID_FLAG": "N",
        "BEACH_LEN_IN_MI": "0.27",
        "BEACH_LATEST_BEACH_YEAR": "2023",
        "BEACH_ACCESS": "Public",
        "OWNER_ACCESS": "Public",
        "DORMANT_STATUS": "",
        "START_LATITUDE_MEASURE": "41.4931",
        "START_LONGITUDE_MEASURE": "-71.138472",
        "END_LATITUDE_MEASURE": "41.495295",
        "END_LONGITUDE_MEASURE": "-71.134122",
        "SOURCE_MAP_SCALE": "100000",
        "H_REREFENCE_DATUM_NAME": "NAD83",
        "STATE_CONTACT_FIRST_NAME": "",
        "STATE_CONTACT_LAST_NAME": "",
        "STATE_CONTACT_AGENCY_NAME": "",
        "STATE_CONTACT_TEL_NUMBER": "",
        "STATE_CONTACT_URL": "",
        "SOURCE_JOINKEY": "{127723E4-D565-26FF-E063-42DE43865AE3}"
    },
    "RI734704": {
        "PRG_INT_CODE": "27254",
        "BEACH_NAME": "Echo Lake Campground Beach",
        "BEACH_COUNTY": "PROVIDENCE",
        "BEACH_STATE": "RI",
        "BEACH_TRIBE_CODE": "",
        "HISTORICAL_ID_FLAG": "Y",
        "BEACH_LEN_IN_MI": "0.04",
        "BEACH_LATEST_BEACH_YEAR": "2023",
        "BEACH_ACCESS": "Private",
        "OWNER_ACCESS": "Private",
        "DORMANT_STATUS": "",
        "START_LATITUDE_MEASURE": "41.9372",
        "START_LONGITUDE_MEASURE": "-71.7145",
        "END_LATITUDE_MEASURE": "41.9372",
        "END_LONGITUDE_MEASURE": "-71.7145",
        "SOURCE_MAP_SCALE": "100000",
        "H_REREFENCE_DATUM_NAME": "NAD83",
        "STATE_CONTACT_FIRST_NAME": "",
        "STATE_CONTACT_LAST_NAME": "",
        "STATE_CONTACT_AGENCY_NAME": "",
        "STATE_CONTACT_TEL_NUMBER": "",
        "STATE_CONTACT_URL": "",
        "SOURCE_JOINKEY": "{127723E4-AB6D-26FF-E063-42DE43865AE3}"
    },
    "RI757756": {
        "PRG_INT_CODE": "27253",
        "BEACH_NAME": "Grinnell's Beach",
        "BEACH_COUNTY": "NEWPORT",
        "BEACH_STATE": "RI",
        "BEACH_TRIBE_CODE": "",
        "HISTORICAL_ID_FLAG": "N",
        "BEACH_LEN_IN_MI": "0.16",
        "BEACH_LATEST_BEACH_YEAR": "2023",
        "BEACH_ACCESS": "Public",
        "OWNER_ACCESS": "Public",
        "DORMANT_STATUS": "",
        "START_LATITUDE_MEASURE": "41.625483",
        "START_LONGITUDE_MEASURE": "-71.215924",
        "END_LATITUDE_MEASURE": "41.624385",
        "END_LONGITUDE_MEASURE": "-71.213213",
        "SOURCE_MAP_SCALE": "100000",
        "H_REREFENCE_DATUM_NAME": "NAD83",
        "STATE_CONTACT_FIRST_NAME": "",
        "STATE_CONTACT_LAST_NAME": "",
        "STATE_CONTACT_AGENCY_NAME": "",
        "STATE_CONTACT_TEL_NUMBER": "",
        "STATE_CONTACT_URL": "",
        "SOURCE_JOINKEY": "{127723E4-D575-26FF-E063-42DE43865AE3}"
    },
    "RI759310": {
        "PRG_INT_CODE": "27173",
        "BEACH_NAME": "Galilee Beach Club Associat",
        "BEACH_COUNTY": "WASHINGTON",
        "BEACH_STATE": "RI",
        "BEACH_TRIBE_CODE": "",
        "HISTORICAL_ID_FLAG": "N",
        "BEACH_LEN_IN_MI": "0.05",
        "BEACH_LATEST_BEACH_YEAR": "2023",
        "BEACH_ACCESS": "Private",
        "OWNER_ACCESS": "Private",
        "DORMANT_STATUS": "",
        "START_LATITUDE_MEASURE": "41.375526",
        "START_LONGITUDE_MEASURE": "-71.51111",
        "END_LATITUDE_MEASURE": "41.375482",
        "END_LONGITUDE_MEASURE": "-71.510548",
        "SOURCE_MAP_SCALE": "100000",
        "H_REREFENCE_DATUM_NAME": "NAD83",
        "STATE_CONTACT_FIRST_NAME": "",
        "STATE_CONTACT_LAST_NAME": "",
        "STATE_CONTACT_AGENCY_NAME": "",
        "STATE_CONTACT_TEL_NUMBER": "",
        "STATE_CONTACT_URL": "",
        "SOURCE_JOINKEY": "{127723E4-D577-26FF-E063-42DE43865AE3}"
    },
    "RI765703": {
        "PRG_INT_CODE": "27158",
        "BEACH_NAME": "Camp Ruggles/Irons Homestead Beach",
        "BEACH_COUNTY": "PROVIDENCE",
        "BEACH_STATE": "RI",
        "BEACH_TRIBE_CODE": "",
        "HISTORICAL_ID_FLAG": "Y",
        "BEACH_LEN_IN_MI": "0.03",
        "BEACH_LATEST_BEACH_YEAR": "2023",
        "BEACH_ACCESS": "Private",
        "OWNER_ACCESS": "Private",
        "DORMANT_STATUS": "",
        "START_LATITUDE_MEASURE": "41.88243",
        "START_LONGITUDE_MEASURE": "-71.6269",
        "END_LATITUDE_MEASURE": "41.88243",
        "END_LONGITUDE_MEASURE": "-71.6269",
        "SOURCE_MAP_SCALE": "100000",
        "H_REREFENCE_DATUM_NAME": "NAD83",
        "STATE_CONTACT_FIRST_NAME": "",
        "STATE_CONTACT_LAST_NAME": "",
        "STATE_CONTACT_AGENCY_NAME": "",
        "STATE_CONTACT_TEL_NUMBER": "",
        "STATE_CONTACT_URL": "",
        "SOURCE_JOINKEY": "{127723E4-A485-26FF-E063-42DE43865AE3}"
    },
    "RI766504": {
        "PRG_INT_CODE": "27229",
        "BEACH_NAME": "Westwood Ymca Beach",
        "BEACH_COUNTY": "KENT",
        "BEACH_STATE": "RI",
        "BEACH_TRIBE_CODE": "",
        "HISTORICAL_ID_FLAG": "Y",
        "BEACH_LEN_IN_MI": "0.02",
        "BEACH_LATEST_BEACH_YEAR": "2023",
        "BEACH_ACCESS": "Private",
        "OWNER_ACCESS": "Private",
        "DORMANT_STATUS": "",
        "START_LATITUDE_MEASURE": "41.679601",
        "START_LONGITUDE_MEASURE": "-71.67428",
        "END_LATITUDE_MEASURE": "41.679885",
        "END_LONGITUDE_MEASURE": "-71.674312",
        "SOURCE_MAP_SCALE": "100000",
        "H_REREFENCE_DATUM_NAME": "NAD83",
        "STATE_CONTACT_FIRST_NAME": "",
        "STATE_CONTACT_LAST_NAME": "",
        "STATE_CONTACT_AGENCY_NAME": "",
        "STATE_CONTACT_TEL_NUMBER": "",
        "STATE_CONTACT_URL": "",
        "SOURCE_JOINKEY": "{127723E4-AB43-26FF-E063-42DE43865AE3}"
    },
    "RI767188": {
        "PRG_INT_CODE": "27157",
        "BEACH_NAME": "Camp Nokewa",
        "BEACH_COUNTY": "WASHINGTON",
        "BEACH_STATE": "RI",
        "BEACH_TRIBE_CODE": "",
        "HISTORICAL_ID_FLAG": "Y",
        "BEACH_LEN_IN_MI": "0",
        "BEACH_LATEST_BEACH_YEAR": "2023",
        "BEACH_ACCESS": "Private",
        "OWNER_ACCESS": "Private",
        "DORMANT_STATUS": "",
        "START_LATITUDE_MEASURE": "45.52078",
        "START_LONGITUDE_MEASURE": "71.44961",
        "END_LATITUDE_MEASURE": "45.52078",
        "END_LONGITUDE_MEASURE": "71.44961",
        "SOURCE_MAP_SCALE": "100000",
        "H_REREFENCE_DATUM_NAME": "NAD83",
        "STATE_CONTACT_FIRST_NAME": "",
        "STATE_CONTACT_LAST_NAME": "",
        "STATE_CONTACT_AGENCY_NAME": "",
        "STATE_CONTACT_TEL_NUMBER": "",
        "STATE_CONTACT_URL": "",
        "SOURCE_JOINKEY": "{127723E4-AB6F-26FF-E063-42DE43865AE3}"
    },
    "RI777308": {
        "PRG_INT_CODE": "27143",
        "BEACH_NAME": "Briar Point Beach",
        "BEACH_COUNTY": "KENT",
        "BEACH_STATE": "RI",
        "BEACH_TRIBE_CODE": "",
        "HISTORICAL_ID_FLAG": "Y",
        "BEACH_LEN_IN_MI": "0.09",
        "BEACH_LATEST_BEACH_YEAR": "2023",
        "BEACH_ACCESS": "Public",
        "OWNER_ACCESS": "Public",
        "DORMANT_STATUS": "",
        "START_LATITUDE_MEASURE": "41.67431",
        "START_LONGITUDE_MEASURE": "-71.5497",
        "END_LATITUDE_MEASURE": "41.67431",
        "END_LONGITUDE_MEASURE": "-71.5497",
        "SOURCE_MAP_SCALE": "100000",
        "H_REREFENCE_DATUM_NAME": "NAD83",
        "STATE_CONTACT_FIRST_NAME": "",
        "STATE_CONTACT_LAST_NAME": "",
        "STATE_CONTACT_AGENCY_NAME": "",
        "STATE_CONTACT_TEL_NUMBER": "",
        "STATE_CONTACT_URL": "",
        "SOURCE_JOINKEY": "{127723E4-A487-26FF-E063-42DE43865AE3}"
    },
    "RI780069": {
        "PRG_INT_CODE": "27203",
        "BEACH_NAME": "Ocean House",
        "BEACH_COUNTY": "WASHINGTON",
        "BEACH_STATE": "RI",
        "BEACH_TRIBE_CODE": "",
        "HISTORICAL_ID_FLAG": "N",
        "BEACH_LEN_IN_MI": "0.12",
        "BEACH_LATEST_BEACH_YEAR": "2023",
        "BEACH_ACCESS": "Private",
        "OWNER_ACCESS": "Private",
        "DORMANT_STATUS": "",
        "START_LATITUDE_MEASURE": "41.308985",
        "START_LONGITUDE_MEASURE": "-71.852723",
        "END_LATITUDE_MEASURE": "41.309648",
        "END_LONGITUDE_MEASURE": "-71.851172",
        "SOURCE_MAP_SCALE": "100000",
        "H_REREFENCE_DATUM_NAME": "NAD83",
        "STATE_CONTACT_FIRST_NAME": "",
        "STATE_CONTACT_LAST_NAME": "",
        "STATE_CONTACT_AGENCY_NAME": "",
        "STATE_CONTACT_TEL_NUMBER": "",
        "STATE_CONTACT_URL": "",
        "SOURCE_JOINKEY": "{127723E4-D579-26FF-E063-42DE43865AE3}"
    },
    "RI810609": {
        "PRG_INT_CODE": "27178",
        "BEACH_NAME": "Goddard Memorial State Park",
        "BEACH_COUNTY": "KENT",
        "BEACH_STATE": "RI",
        "BEACH_TRIBE_CODE": "",
        "HISTORICAL_ID_FLAG": "N",
        "BEACH_LEN_IN_MI": "1.06",
        "BEACH_LATEST_BEACH_YEAR": "2023",
        "BEACH_ACCESS": "Public",
        "OWNER_ACCESS": "Public",
        "DORMANT_STATUS": "",
        "START_LATITUDE_MEASURE": "41.6656",
        "START_LONGITUDE_MEASURE": "-71.4401",
        "END_LATITUDE_MEASURE": "41.671044",
        "END_LONGITUDE_MEASURE": "-71.425637",
        "SOURCE_MAP_SCALE": "100000",
        "H_REREFENCE_DATUM_NAME": "NAD83",
        "STATE_CONTACT_FIRST_NAME": "",
        "STATE_CONTACT_LAST_NAME": "",
        "STATE_CONTACT_AGENCY_NAME": "",
        "STATE_CONTACT_TEL_NUMBER": "",
        "STATE_CONTACT_URL": "",
        "SOURCE_JOINKEY": "{127723E4-D57B-26FF-E063-42DE43865AE3}"
    },
    "RI810983": {
        "PRG_INT_CODE": "139381",
        "BEACH_NAME": "Harmony Hill School",
        "BEACH_COUNTY": "PROVIDENCE",
        "BEACH_STATE": "RI",
        "BEACH_TRIBE_CODE": "",
        "HISTORICAL_ID_FLAG": "Y",
        "BEACH_LEN_IN_MI": "0.01",
        "BEACH_LATEST_BEACH_YEAR": "2023",
        "BEACH_ACCESS": "Private",
        "OWNER_ACCESS": "Private",
        "DORMANT_STATUS": "",
        "START_LATITUDE_MEASURE": "41.915339",
        "START_LONGITUDE_MEASURE": "-71.626024",
        "END_LATITUDE_MEASURE": "41.915437",
        "END_LONGITUDE_MEASURE": "-71.625943",
        "SOURCE_MAP_SCALE": "100000",
        "H_REREFENCE_DATUM_NAME": "NAD83",
        "STATE_CONTACT_FIRST_NAME": "",
        "STATE_CONTACT_LAST_NAME": "",
        "STATE_CONTACT_AGENCY_NAME": "",
        "STATE_CONTACT_TEL_NUMBER": "",
        "STATE_CONTACT_URL": "",
        "SOURCE_JOINKEY": "{127723E4-AA6F-26FF-E063-42DE43865AE3}"
    },
    "RI813834": {
        "PRG_INT_CODE": "27255",
        "BEACH_NAME": "Fogland Beach",
        "BEACH_COUNTY": "NEWPORT",
        "BEACH_STATE": "RI",
        "BEACH_TRIBE_CODE": "",
        "HISTORICAL_ID_FLAG": "N",
        "BEACH_LEN_IN_MI": "0.53",
        "BEACH_LATEST_BEACH_YEAR": "2023",
        "BEACH_ACCESS": "Public",
        "OWNER_ACCESS": "Public",
        "DORMANT_STATUS": "",
        "START_LATITUDE_MEASURE": "41.55933",
        "START_LONGITUDE_MEASURE": "-71.22046",
        "END_LATITUDE_MEASURE": "41.554933",
        "END_LONGITUDE_MEASURE": "-71.213628",
        "SOURCE_MAP_SCALE": "100000",
        "H_REREFENCE_DATUM_NAME": "NAD83",
        "STATE_CONTACT_FIRST_NAME": "",
        "STATE_CONTACT_LAST_NAME": "",
        "STATE_CONTACT_AGENCY_NAME": "",
        "STATE_CONTACT_TEL_NUMBER": "",
        "STATE_CONTACT_URL": "",
        "SOURCE_JOINKEY": "{127723E4-D57D-26FF-E063-42DE43865AE3}"
    },
    "RI814445": {
        "PRG_INT_CODE": "27176",
        "BEACH_NAME": "Ginny-B Campground Beach",
        "BEACH_COUNTY": "PROVIDENCE",
        "BEACH_STATE": "RI",
        "BEACH_TRIBE_CODE": "",
        "HISTORICAL_ID_FLAG": "Y",
        "BEACH_LEN_IN_MI": "0.04",
        "BEACH_LATEST_BEACH_YEAR": "2023",
        "BEACH_ACCESS": "Private",
        "OWNER_ACCESS": "Private",
        "DORMANT_STATUS": "",
        "START_LATITUDE_MEASURE": "41.75644",
        "START_LONGITUDE_MEASURE": "-71.7533",
        "END_LATITUDE_MEASURE": "41.75644",
        "END_LONGITUDE_MEASURE": "-71.7533",
        "SOURCE_MAP_SCALE": "100000",
        "H_REREFENCE_DATUM_NAME": "NAD83",
        "STATE_CONTACT_FIRST_NAME": "",
        "STATE_CONTACT_LAST_NAME": "",
        "STATE_CONTACT_AGENCY_NAME": "",
        "STATE_CONTACT_TEL_NUMBER": "",
        "STATE_CONTACT_URL": "",
        "SOURCE_JOINKEY": "{127723E4-AA71-26FF-E063-42DE43865AE3}"
    },
    "RI817948": {
        "PRG_INT_CODE": "162560",
        "BEACH_NAME": "Marine Avenue Beach",
        "BEACH_COUNTY": "NEWPORT COUNTY",
        "BEACH_STATE": "RI",
        "BEACH_TRIBE_CODE": "",
        "HISTORICAL_ID_FLAG": "N",
        "BEACH_LEN_IN_MI": "0.03",
        "BEACH_LATEST_BEACH_YEAR": "2023",
        "BEACH_ACCESS": "Public",
        "OWNER_ACCESS": "Public",
        "DORMANT_STATUS": "",
        "START_LATITUDE_MEASURE": "41.46696",
        "START_LONGITUDE_MEASURE": "-71.30158",
        "END_LATITUDE_MEASURE": "41.46696",
        "END_LONGITUDE_MEASURE": "-71.30158",
        "SOURCE_MAP_SCALE": "100000",
        "H_REREFENCE_DATUM_NAME": "NAD83",
        "STATE_CONTACT_FIRST_NAME": "",
        "STATE_CONTACT_LAST_NAME": "",
        "STATE_CONTACT_AGENCY_NAME": "",
        "STATE_CONTACT_TEL_NUMBER": "",
        "STATE_CONTACT_URL": "",
        "SOURCE_JOINKEY": "{127723E4-D133-26FF-E063-42DE43865AE3}"
    },
    "RI838286": {
        "PRG_INT_CODE": "27193",
        "BEACH_NAME": "Mother Of Hope Day Camp",
        "BEACH_COUNTY": "PROVIDENCE",
        "BEACH_STATE": "RI",
        "BEACH_TRIBE_CODE": "",
        "HISTORICAL_ID_FLAG": "Y",
        "BEACH_LEN_IN_MI": "0.1",
        "BEACH_LATEST_BEACH_YEAR": "2023",
        "BEACH_ACCESS": "Private",
        "OWNER_ACCESS": "Private",
        "DORMANT_STATUS": "",
        "START_LATITUDE_MEASURE": "41.932167",
        "START_LONGITUDE_MEASURE": "-71.707296",
        "END_LATITUDE_MEASURE": "41.932442",
        "END_LONGITUDE_MEASURE": "-71.707215",
        "SOURCE_MAP_SCALE": "100000",
        "H_REREFENCE_DATUM_NAME": "NAD83",
        "STATE_CONTACT_FIRST_NAME": "",
        "STATE_CONTACT_LAST_NAME": "",
        "STATE_CONTACT_AGENCY_NAME": "",
        "STATE_CONTACT_TEL_NUMBER": "",
        "STATE_CONTACT_URL": "",
        "SOURCE_JOINKEY": "{127723E4-A08B-26FF-E063-42DE43865AE3}"
    },